[{'city_id': -3881514, 'name': 'Kary', 'nr_hotels': 0, 'country': 'pk', 'latitude': '33.3194007873535', 'longitude': '73.2596969604492', 'timezone_name': 'Asia/Karachi', 'timezone_offset': 5}, {'city_id': -3881466, 'name': 'Sarāj Malik Wazīr', 'nr_hotels': 0, 'country': 'pk', 'latitude': '34.0208015441895', 'longitude': '71.5916976928711', 'timezone_name': 'Asia/Karachi', 'timezone_offset': 5}, {'city_id': -3881464, 'name': 'Shāhi Bāgh', 'nr_hotels': 0, 'country': 'pk', 'latitude': '34.0203018188477', 'longitude': '71.5761032104492', 'timezone_name': 'Asia/Karachi', 'timezone_offset': 5}, {'city_id': -3878582, 'name': 'Degān', 'nr_hotels': 0, 'country': 'pk', 'latitude': '25.2693996429443', 'longitude': '63.4305992126465', 'timezone_name': 'Asia/Karachi', 'timezone_offset': 5}, {'city_id': -3877672, 'name': 'Oberweng', 'nr_hotels': 0, 'country': 'at', 'latitude': '47.6833000183105', 'longitude': '14.3667001724243', 'timezone_name': 'Europe/Vienna', 'timezone_offset': 1}, {'city_id': -3877671, 'name': 'Goslitz', 'nr_hotels': 0, 'country': 'at', 'latitude': '47.6833000183105', 'longitude': '14.3832998275757', 'timezone_name': 'Europe/Vienna', 'timezone_offset': 1}, {'city_id': -3877013, 'name': 'Malanjak', 'nr_hotels': 0, 'country': 'ir', 'latitude': '35.7999992370605', 'longitude': '51.36669921875', 'timezone_name': 'Asia/Tehran', 'timezone_offset': 4}, {'city_id': -3875419, 'name': 'Pedro Gonzalez', 'nr_hotels': 1, 'country': 've', 'latitude': '11.1167001724243', 'longitude': '-63.9166984558105', 'timezone_name': 'America/Caracas', 'timezone_offset': -4}, {'city_id': -3875398, 'name': 'Los Cerritos', 'nr_hotels': 0, 'country': 've', 'latitude': '11.0193996429443', 'longitude': '-63.8471984863281', 'timezone_name': 'America/Caracas', 'timezone_offset': -4}, {'city_id': -3875392, 'name': 'Las Piedras', 'nr_hotels': 0, 'country': 've', 'latitude': '10.9939002990723', 'longitude': '-63.8889007568359', 'timezone_name': 'America/Caracas', 'timezone_offset': -4}, {'city_id': -3875389, 'name': 'Las Huertas', 'nr_hotels': 0, 'country': 've', 'latitude': '11.0249996185303', 'longitude': '-63.8456001281738', 'timezone_name': 'America/Caracas', 'timezone_offset': -4}, {'city_id': -3875377, 'name': 'Loma de Guerra', 'nr_hotels': 2, 'country': 've', 'latitude': '11.1061000823975', 'longitude': '-63.8527984619141', 'timezone_name': 'America/Caracas', 'timezone_offset': -4}, {'city_id': -3875376, 'name': 'La Loma', 'nr_hotels': 1, 'country': 've', 'latitude': '11.1443996429443', 'longitude': '-63.86669921875', 'timezone_name': 'America/Caracas', 'timezone_offset': -4}, {'city_id': -3875374, 'name': 'La Guardia', 'nr_hotels': 0, 'country': 've', 'latitude': '10.99784', 'longitude': '-64.01918', 'timezone_name': 'America/Caracas', 'timezone_offset': -4}, {'city_id': -3875365, 'name': 'La Asunción', 'nr_hotels': 0, 'country': 've', 'latitude': '11.02894', 'longitude': '-63.86577', 'timezone_name': 'America/Caracas', 'timezone_offset': -4}, {'city_id': -3875349, 'name': 'Flandes', 'nr_hotels': 0, 'country': 've', 'latitude': '11.0743999481201', 'longitude': '-63.8283004760742', 'timezone_name': 'America/Caracas', 'timezone_offset': -4}, {'city_id': -3875339, 'name': 'El Piache', 'nr_hotels': 0, 'country': 've', 'latitude': '10.9632997512817', 'longitude': '-63.875', 'timezone_name': 'America/Caracas', 'timezone_offset': -4}, {'city_id': -3875337, 'name': 'El Palito', 'nr_hotels': 0, 'country': 've', 'latitude': '11.0666999816895', 'longitude': '-63.9832992553711', 'timezone_name': 'America/Caracas', 'timezone_offset': -4}, {'city_id': -3875330, 'name': 'El Hato', 'nr_hotels': 0, 'country': 've', 'latitude': '11.0349998474121', 'longitude': '-63.815601348877', 'timezone_name': 'America/Caracas', 'timezone_offset': -4}, {'city_id': -3875323, 'name': 'El Cardón', 'nr_hotels': 0, 'country': 've', 'latitude': '11.1079', 'longitude': '-63.84663', 'timezone_name': 'America/Caracas', 'timezone_offset': -4}, {'city_id': -3875318, 'name': 'El Agua', 'nr_hotels': 1, 'country': 've', 'latitude': '11.14244556427', 'longitude': '-63.8681602478027', 'timezone_name': 'America/Caracas', 'timezone_offset': -4}, {'city_id': -3875311, 'name': 'Cerro Colorado', 'nr_hotels': 0, 'country': 've', 'latitude': '10.9539003372192', 'longitude': '-63.86669921875', 'timezone_name': 'America/Caracas', 'timezone_offset': -4}, {'city_id': -3875298, 'name': 'Boca Chica', 'nr_hotels': 0, 'country': 've', 'latitude': '10.8999996185303', 'longitude': '-64.3572006225586', 'timezone_name': 'America/Caracas', 'timezone_offset': -4}, {'city_id': -3875289, 'name': 'Aricagua', 'nr_hotels': 1, 'country': 've', 'latitude': '11.125', 'longitude': '-63.8582992553711', 'timezone_name': 'America/Caracas', 'timezone_offset': -4}, {'city_id': -3875285, 'name': 'Agua de Vaca', 'nr_hotels': 0, 'country': 've', 'latitude': '11.0132999420166', 'longitude': '-63.9667015075684', 'timezone_name': 'America/Caracas', 'timezone_offset': -4}, {'city_id': -3875246, 'name': 'El Tigre', 'nr_hotels': 0, 'country': 've', 'latitude': '10.4750003814697', 'longitude': '-67.2750015258789', 'timezone_name': 'America/Caracas', 'timezone_offset': -4}, {'city_id': -3875194, 'name': 'Sabana Grande', 'nr_hotels': 0, 'country': 've', 'latitude': '10.497200012207', 'longitude': '-66.875', 'timezone_name': 'America/Caracas', 'timezone_offset': -4}, {'city_id': -3875175, 'name': 'Prado de María', 'nr_hotels': 0, 'country': 've', 'latitude': '10.4833002090454', 'longitude': '-66.9083023071289', 'timezone_name': 'America/Caracas', 'timezone_offset': -4}, {'city_id': -3875128, 'name': 'El Paraíso', 'nr_hotels': 0, 'country': 've', 'latitude': '10.4917001724243', 'longitude': '-66.9332962036133', 'timezone_name': 'America/Caracas', 'timezone_offset': -4}, {'city_id': -3874940, 'name': 'Conejo Blanco', 'nr_hotels': 0, 'country': 've', 'latitude': '10.5417003631592', 'longitude': '-66.9250030517578', 'timezone_name': 'America/Caracas', 'timezone_offset': -4}, {'city_id': -3874918, 'name': 'Chichiriviche', 'nr_hotels': 0, 'country': 've', 'latitude': '10.5478000640869', 'longitude': '-67.2399978637695', 'timezone_name': 'America/Caracas', 'timezone_offset': -4}, {'city_id': -3874646, 'name': 'Barrio La Primavera', 'nr_hotels': 0, 'country': 've', 'latitude': '10.4121999740601', 'longitude': '-67.9083023071289', 'timezone_name': 'America/Caracas', 'timezone_offset': -4}, {'city_id': -3873021, 'name': 'Reichersberg', 'nr_hotels': 0, 'country': 'at', 'latitude': '48.2667007446289', 'longitude': '16.0666999816895', 'timezone_name': 'Europe/Vienna', 'timezone_offset': 1}, {'city_id': -3873001, 'name': 'Holzleiten', 'nr_hotels': 1, 'country': 'at', 'latitude': '48.25', 'longitude': '15.8832998275757', 'timezone_name': 'Europe/Vienna', 'timezone_offset': 1}, {'city_id': -3872888, 'name': 'Mānriāno Bānda', 'nr_hotels': 0, 'country': 'pk', 'latitude': '34.6053009033203', 'longitude': '71.9542007446289', 'timezone_name': 'Asia/Karachi', 'timezone_offset': 5}, {'city_id': -3872474, 'name': 'Sarai', 'nr_hotels': 0, 'country': 'pk', 'latitude': '34.8244018554688', 'longitude': '71.8394012451172', 'timezone_name': 'Asia/Karachi', 'timezone_offset': 5}, {'city_id': -3870755, 'name': 'Bārikāo', 'nr_hotels': 0, 'country': 'pk', 'latitude': '34.8717002868652', 'longitude': '71.676399230957', 'timezone_name': 'Asia/Karachi', 'timezone_offset': 5}, {'city_id': -3870534, 'name': 'Santa Bárbara', 'nr_hotels': 0, 'country': 'mx', 'latitude': '26.7000007629395', 'longitude': '-109.550003051758', 'timezone_name': 'America/Hermosillo', 'timezone_offset': -7}, {'city_id': -3870348, 'name': 'El Pilar', 'nr_hotels': 0, 'country': 'mx', 'latitude': '27.9666996002197', 'longitude': '-110.983001708984', 'timezone_name': 'America/Hermosillo', 'timezone_offset': -7}, {'city_id': -3870345, 'name': 'San Carlos', 'nr_hotels': 44, 'country': 'mx', 'latitude': '27.9588153419506', 'longitude': '-111.039803743362', 'timezone_name': 'America/Hermosillo', 'timezone_offset': -7}, {'city_id': -3870344, 'name': 'La Soledad', 'nr_hotels': 0, 'country': 'mx', 'latitude': '27.9832992553711', 'longitude': '-111.050003051758', 'timezone_name': 'America/Hermosillo', 'timezone_offset': -7}, {'city_id': -3870236, 'name': 'La Huerta', 'nr_hotels': 0, 'country': 'mx', 'latitude': '28.0167007446289', 'longitude': '-111.116996765137', 'timezone_name': 'America/Hermosillo', 'timezone_offset': -7}, {'city_id': -3870040, 'name': 'Kino Nuevo', 'nr_hotels': 0, 'country': 'mx', 'latitude': '28.86669921875', 'longitude': '-112.032997131348', 'timezone_name': 'America/Hermosillo', 'timezone_offset': -7}, {'city_id': -3870038, 'name': 'San Miguel', 'nr_hotels': 0, 'country': 'mx', 'latitude': '28.9500007629395', 'longitude': '-112.083000183105', 'timezone_name': 'America/Hermosillo', 'timezone_offset': -7}, {'city_id': -3869946, 'name': 'El Saucito', 'nr_hotels': 0, 'country': 'mx', 'latitude': '29.1499996185303', 'longitude': '-110.883003234863', 'timezone_name': 'America/Hermosillo', 'timezone_offset': -7}, {'city_id': -3869400, 'name': 'Santo Tomás', 'nr_hotels': 0, 'country': 'mx', 'latitude': '30.75', 'longitude': '-113.099998474121', 'timezone_name': 'America/Hermosillo', 'timezone_offset': -7}, {'city_id': -3869371, 'name': 'Progreso', 'nr_hotels': 0, 'country': 'mx', 'latitude': '31.3166999816895', 'longitude': '-109.583000183105', 'timezone_name': 'America/Hermosillo', 'timezone_offset': -7}, {'city_id': -3869301, 'name': 'Las Conchas', 'nr_hotels': 0, 'country': 'mx', 'latitude': '31.2999992370605', 'longitude': '-113.491996765137', 'timezone_name': 'America/Hermosillo', 'timezone_offset': -7}, {'city_id': -3868939, 'name': 'Vargsskär', 'nr_hotels': 0, 'country': 'se', 'latitude': '60.3166999816895', 'longitude': '18.5666999816895', 'timezone_name': 'Europe/Stockholm', 'timezone_offset': 1}, {'city_id': -3868716, 'name': 'Tirsdalen', 'nr_hotels': 0, 'country': 'se', 'latitude': '60.13330078125', 'longitude': '18.5499992370605', 'timezone_name': 'Europe/Stockholm', 'timezone_offset': 1}, {'city_id': -3868704, 'name': 'Johannevik', 'nr_hotels': 0, 'country': 'se', 'latitude': '60.0250015258789', 'longitude': '18.7833003997803', 'timezone_name': 'Europe/Stockholm', 'timezone_offset': 1}, {'city_id': -3868701, 'name': 'Holmsberg', 'nr_hotels': 0, 'country': 'se', 'latitude': '60', 'longitude': '18.7833003997803', 'timezone_name': 'Europe/Stockholm', 'timezone_offset': 1}, {'city_id': -3868596, 'name': 'Baggboda', 'nr_hotels': 0, 'country': 'se', 'latitude': '59.88330078125', 'longitude': '18.86669921875', 'timezone_name': 'Europe/Stockholm', 'timezone_offset': 1}, {'city_id': -3868519, 'name': "Ust'-Kamchatsk Staryy", 'nr_hotels': 0, 'country': 'ru', 'latitude': '56.2277984619141', 'longitude': '162.477996826172', 'timezone_name': 'Asia/Kamchatka', 'timezone_offset': 12}, {'city_id': -3867883, 'name': 'Söderbyle', 'nr_hotels': 0, 'country': 'se', 'latitude': '59.9000015258789', 'longitude': '18.9666996002197', 'timezone_name': 'Europe/Stockholm', 'timezone_offset': 1}, {'city_id': -3866696, 'name': 'Qingfengdadui', 'nr_hotels': 0, 'country': 'cn', 'latitude': '33.4500007629395', 'longitude': '120.300003051758', 'timezone_name': 'Asia/Shanghai', 'timezone_offset': 8}, {'city_id': -3866645, 'name': 'Hexing', 'nr_hotels': 0, 'country': 'cn', 'latitude': '33.7667007446289', 'longitude': '120.233001708984', 'timezone_name': 'Asia/Shanghai', 'timezone_offset': 8}, {'city_id': -3866543, 'name': 'Huazhuang', 'nr_hotels': 1, 'country': 'cn', 'latitude': '33.2167015075684', 'longitude': '119.333000183105', 'timezone_name': 'Asia/Shanghai', 'timezone_offset': 8}, {'city_id': -3866533, 'name': 'Wangyugang', 'nr_hotels': 0, 'country': 'cn', 'latitude': '33.24169921875', 'longitude': '119.383003234863', 'timezone_name': 'Asia/Shanghai', 'timezone_offset': 8}, {'city_id': -3866526, 'name': 'Jiangjiaqiao', 'nr_hotels': 1, 'country': 'cn', 'latitude': '33.2667007446289', 'longitude': '119.317001342773', 'timezone_name': 'Asia/Shanghai', 'timezone_offset': 8}, {'city_id': -3866507, 'name': 'Liuzhuang', 'nr_hotels': 0, 'country': 'cn', 'latitude': '33.36669921875', 'longitude': '119.016998291016', 'timezone_name': 'Asia/Shanghai', 'timezone_offset': 8}, {'city_id': -3866433, 'name': 'Chengdong', 'nr_hotels': 0, 'country': 'cn', 'latitude': '33.5332984924316', 'longitude': '119.150001525879', 'timezone_name': 'Asia/Shanghai', 'timezone_offset': 8}, {'city_id': -3866411, 'name': 'Xuyangzhuang', 'nr_hotels': 0, 'country': 'cn', 'latitude': '33.5999984741211', 'longitude': '119.133003234863', 'timezone_name': 'Asia/Shanghai', 'timezone_offset': 8}, {'city_id': -3866410, 'name': 'Bochi', 'nr_hotels': 0, 'country': 'cn', 'latitude': '33.5917015075684', 'longitude': '119.083000183105', 'timezone_name': 'Asia/Shanghai', 'timezone_offset': 8}, {'city_id': -3866356, 'name': 'Dengshe', 'nr_hotels': 1, 'country': 'cn', 'latitude': '33.7667007446289', 'longitude': '119.782997131348', 'timezone_name': 'Asia/Shanghai', 'timezone_offset': 8}, {'city_id': -3866346, 'name': 'Paifang', 'nr_hotels': 1, 'country': 'cn', 'latitude': '33.7667007446289', 'longitude': '119.317001342773', 'timezone_name': 'Asia/Shanghai', 'timezone_offset': 8}, {'city_id': -3866343, 'name': 'Wangzhuang', 'nr_hotels': 0, 'country': 'cn', 'latitude': '33.7750015258789', 'longitude': '119.133003234863', 'timezone_name': 'Asia/Shanghai', 'timezone_offset': 8}, {'city_id': -3866330, 'name': 'Zhuma', 'nr_hotels': 0, 'country': 'cn', 'latitude': '33.7999992370605', 'longitude': '119.266998291016', 'timezone_name': 'Asia/Shanghai', 'timezone_offset': 8}, {'city_id': -3866271, 'name': 'Xiayaowan', 'nr_hotels': 0, 'country': 'cn', 'latitude': '33.7832984924316', 'longitude': '119.833000183105', 'timezone_name': 'Asia/Shanghai', 'timezone_offset': 8}, {'city_id': -3866263, 'name': 'Qal‘at al Ḩişn', 'nr_hotels': 0, 'country': 'sy', 'latitude': '32.7806015014648', 'longitude': '35.6833000183105', 'timezone_name': 'Asia/Jerusalem', 'timezone_offset': 2}, {'city_id': -3866261, 'name': 'Lūbiyat Wādis', 'nr_hotels': 0, 'country': 'sy', 'latitude': '32.8361015319824', 'longitude': '35.6861000061035', 'timezone_name': 'Asia/Jerusalem', 'timezone_offset': 2}, {'city_id': -3866258, 'name': 'Al Qaş‘īyah', 'nr_hotels': 0, 'country': 'sy', 'latitude': '32.875', 'longitude': '35.75', 'timezone_name': 'Asia/Jerusalem', 'timezone_offset': 2}, {'city_id': -3866249, 'name': 'Şanawbar', 'nr_hotels': 0, 'country': 'sy', 'latitude': '32.997200012207', 'longitude': '35.6805992126465', 'timezone_name': 'Asia/Jerusalem', 'timezone_offset': 2}, {'city_id': -3866184, 'name': 'Maotangqiao', 'nr_hotels': 0, 'country': 'cn', 'latitude': '32.5360984802246', 'longitude': '120.456001281738', 'timezone_name': 'Asia/Shanghai', 'timezone_offset': 8}, {'city_id': -3866181, 'name': 'Hudai', 'nr_hotels': 0, 'country': 'cn', 'latitude': '32.5443992614746', 'longitude': '120.119003295898', 'timezone_name': 'Asia/Shanghai', 'timezone_offset': 8}, {'city_id': -3866115, 'name': 'Xingzhuang', 'nr_hotels': 0, 'country': 'cn', 'latitude': '31.1721992492676', 'longitude': '119.703002929688', 'timezone_name': 'Asia/Shanghai', 'timezone_offset': 8}, {'city_id': -3866111, 'name': 'Shiyanli', 'nr_hotels': 0, 'country': 'cn', 'latitude': '31.1805992126465', 'longitude': '119.525001525879', 'timezone_name': 'Asia/Shanghai', 'timezone_offset': 8}, {'city_id': -3866110, 'name': 'Songlin', 'nr_hotels': 0, 'country': 'cn', 'latitude': '31.1693992614746', 'longitude': '119.458000183105', 'timezone_name': 'Asia/Shanghai', 'timezone_offset': 8}, {'city_id': -3866105, 'name': 'Tiangan', 'nr_hotels': 0, 'country': 'cn', 'latitude': '31.2082996368408', 'longitude': '119.380996704102', 'timezone_name': 'Asia/Shanghai', 'timezone_offset': 8}, {'city_id': -3866103, 'name': 'Zhoushu', 'nr_hotels': 0, 'country': 'cn', 'latitude': '31.247200012207', 'longitude': '119.833000183105', 'timezone_name': 'Asia/Shanghai', 'timezone_offset': 8}, {'city_id': -3866101, 'name': 'Hengshan', 'nr_hotels': 0, 'country': 'cn', 'latitude': '31.25', 'longitude': '119.567001342773', 'timezone_name': 'Asia/Shanghai', 'timezone_offset': 8}, {'city_id': -3866100, 'name': 'Xinchating', 'nr_hotels': 0, 'country': 'cn', 'latitude': '31.25', 'longitude': '119.502998352051', 'timezone_name': 'Asia/Shanghai', 'timezone_offset': 8}, {'city_id': -3866098, 'name': 'Longtoucun', 'nr_hotels': 0, 'country': 'cn', 'latitude': '31.2861003875732', 'longitude': '119.772003173828', 'timezone_name': 'Asia/Shanghai', 'timezone_offset': 8}, {'city_id': -3866096, 'name': 'Shanjuan', 'nr_hotels': 0, 'country': 'cn', 'latitude': '31.2943992614746', 'longitude': '119.664001464844', 'timezone_name': 'Asia/Shanghai', 'timezone_offset': 8}, {'city_id': -3866094, 'name': 'Fengjiabian', 'nr_hotels': 0, 'country': 'cn', 'latitude': '31.2693996429443', 'longitude': '119.432998657227', 'timezone_name': 'Asia/Shanghai', 'timezone_offset': 8}, {'city_id': -3866093, 'name': 'Daochangbu', 'nr_hotels': 0, 'country': 'cn', 'latitude': '31.2971992492676', 'longitude': '119.411003112793', 'timezone_name': 'Asia/Shanghai', 'timezone_offset': 8}, {'city_id': -3866080, 'name': 'Longtan', 'nr_hotels': 0, 'country': 'cn', 'latitude': '31.3472003936768', 'longitude': '119.828002929688', 'timezone_name': 'Asia/Shanghai', 'timezone_offset': 8}, {'city_id': -3866076, 'name': 'Daibei', 'nr_hotels': 0, 'country': 'cn', 'latitude': '31.3360996246338', 'longitude': '119.491996765137', 'timezone_name': 'Asia/Shanghai', 'timezone_offset': 8}, {'city_id': -3866071, 'name': 'Shucun', 'nr_hotels': 0, 'country': 'cn', 'latitude': '31.36669921875', 'longitude': '119.03099822998', 'timezone_name': 'Asia/Shanghai', 'timezone_offset': 8}, {'city_id': -3866056, 'name': 'Jingtang', 'nr_hotels': 0, 'country': 'cn', 'latitude': '31.4167003631592', 'longitude': '119.055999755859', 'timezone_name': 'Asia/Shanghai', 'timezone_offset': 8}, {'city_id': -3866046, 'name': 'Wanshi', 'nr_hotels': 0, 'country': 'cn', 'latitude': '31.4750003814697', 'longitude': '119.932998657227', 'timezone_name': 'Asia/Shanghai', 'timezone_offset': 8}, {'city_id': -3866009, 'name': 'Miaoqiao', 'nr_hotels': 1, 'country': 'cn', 'latitude': '31.6499996185303', 'longitude': '119.97200012207', 'timezone_name': 'Asia/Shanghai', 'timezone_offset': 8}, {'city_id': -3866002, 'name': 'Chengjiao', 'nr_hotels': 0, 'country': 'cn', 'latitude': '31.6555995941162', 'longitude': '119.039001464844', 'timezone_name': 'Asia/Shanghai', 'timezone_offset': 8}, {'city_id': -3866001, 'name': 'Qingshancun', 'nr_hotels': 0, 'country': 'cn', 'latitude': '31.6805992126465', 'longitude': '119.974998474121', 'timezone_name': 'Asia/Shanghai', 'timezone_offset': 8}, {'city_id': -3866000, 'name': 'Lujiaxiang', 'nr_hotels': 0, 'country': 'cn', 'latitude': '31.6972007751465', 'longitude': '119.897003173828', 'timezone_name': 'Asia/Shanghai', 'timezone_offset': 8}, {'city_id': -3865999, 'name': 'Jiaze', 'nr_hotels': 0, 'country': 'cn', 'latitude': '31.6833000183105', 'longitude': '119.786003112793', 'timezone_name': 'Asia/Shanghai', 'timezone_offset': 8}, {'city_id': -3865993, 'name': 'Shilipai', 'nr_hotels': 0, 'country': 'cn', 'latitude': '31.6749992370605', 'longitude': '119.064002990723', 'timezone_name': 'Asia/Shanghai', 'timezone_offset': 8}, {'city_id': -3865974, 'name': 'Beigang', 'nr_hotels': 0, 'country': 'cn', 'latitude': '31.7971992492676', 'longitude': '119.877998352051', 'timezone_name': 'Asia/Shanghai', 'timezone_offset': 8}, {'city_id': -3865969, 'name': 'Maoshan', 'nr_hotels': 0, 'country': 'cn', 'latitude': '31.7889003753662', 'longitude': '119.293998718262', 'timezone_name': 'Asia/Shanghai', 'timezone_offset': 8}, {'city_id': -3865965, 'name': 'Sanjing', 'nr_hotels': 0, 'country': 'cn', 'latitude': '31.8166999816895', 'longitude': '119.963996887207', 'timezone_name': 'Asia/Shanghai', 'timezone_offset': 8}, {'city_id': -3865961, 'name': 'Miaoxi', 'nr_hotels': 0, 'country': 'cn', 'latitude': '31.8138999938965', 'longitude': '119.333000183105', 'timezone_name': 'Asia/Shanghai', 'timezone_offset': 8}, {'city_id': -3865959, 'name': 'Lüshu', 'nr_hotels': 0, 'country': 'cn', 'latitude': '31.8444004058838', 'longitude': '119.872001647949', 'timezone_name': 'Asia/Shanghai', 'timezone_offset': 8}, {'city_id': -3865940, 'name': 'Luoxi', 'nr_hotels': 2, 'country': 'cn', 'latitude': '31.8999996185303', 'longitude': '119.807998657227', 'timezone_name': 'Asia/Shanghai', 'timezone_offset': 8}, {'city_id': -3865916, 'name': 'Huanghuo', 'nr_hotels': 1, 'country': 'cn', 'latitude': '31.9832992553711', 'longitude': '119.608001708984', 'timezone_name': 'Asia/Shanghai', 'timezone_offset': 8}, {'city_id': -3865833, 'name': 'Daming', 'nr_hotels': 0, 'country': 'cn', 'latitude': '32.3471984863281', 'longitude': '120.567001342773', 'timezone_name': 'Asia/Shanghai', 'timezone_offset': 8}, {'city_id': -3865814, 'name': 'Xinmin', 'nr_hotels': 1, 'country': 'cn', 'latitude': '32.4082984924316', 'longitude': '120.583000183105', 'timezone_name': 'Asia/Shanghai', 'timezone_offset': 8}, {'city_id': -3865792, 'name': 'Taiyu', 'nr_hotels': 0, 'country': 'cn', 'latitude': '32.480598449707', 'longitude': '120.161003112793', 'timezone_name': 'Asia/Shanghai', 'timezone_offset': 8}, {'city_id': -3865781, 'name': 'Jiangnian', 'nr_hotels': 0, 'country': 'cn', 'latitude': '32.50830078125', 'longitude': '120.136001586914', 'timezone_name': 'Asia/Shanghai', 'timezone_offset': 8}, {'city_id': -3865775, 'name': 'Guanzhuang', 'nr_hotels': 0, 'country': 'cn', 'latitude': '32.5499992370605', 'longitude': '120.150001525879', 'timezone_name': 'Asia/Shanghai', 'timezone_offset': 8}, {'city_id': -3865760, 'name': 'Zhongzhuchang', 'nr_hotels': 0, 'country': 'cn', 'latitude': '32.6027984619141', 'longitude': '120.069000244141', 'timezone_name': 'Asia/Shanghai', 'timezone_offset': 8}, {'city_id': -3865745, 'name': 'Baidian', 'nr_hotels': 0, 'country': 'cn', 'latitude': '32.6777992248535', 'longitude': '120.263999938965', 'timezone_name': 'Asia/Shanghai', 'timezone_offset': 8}, {'city_id': -3865733, 'name': 'Zhangguo', 'nr_hotels': 0, 'country': 'cn', 'latitude': '32.75', 'longitude': '120.166999816895', 'timezone_name': 'Asia/Shanghai', 'timezone_offset': 8}, {'city_id': -3865731, 'name': 'Guzhuang', 'nr_hotels': 0, 'country': 'cn', 'latitude': '32.75', 'longitude': '120.067001342773', 'timezone_name': 'Asia/Shanghai', 'timezone_offset': 8}, {'city_id': -3865724, 'name': 'Huajiazao', 'nr_hotels': 0, 'country': 'cn', 'latitude': '32.7722015380859', 'longitude': '120.430999755859', 'timezone_name': 'Asia/Shanghai', 'timezone_offset': 8}, {'city_id': -3865676, 'name': 'Jinglin', 'nr_hotels': 1, 'country': 'cn', 'latitude': '32.0013999938965', 'longitude': '119.621002197266', 'timezone_name': 'Asia/Shanghai', 'timezone_offset': 8}, {'city_id': -3865672, 'name': "Shang'anziqiao", 'nr_hotels': 0, 'country': 'cn', 'latitude': '32.0250015258789', 'longitude': '119.03099822998', 'timezone_name': 'Asia/Shanghai', 'timezone_offset': 8}, {'city_id': -3865660, 'name': 'Jiepai', 'nr_hotels': 0, 'country': 'cn', 'latitude': '32.0699996948242', 'longitude': '119.849998474121', 'timezone_name': 'Asia/Shanghai', 'timezone_offset': 8}, {'city_id': -3865658, 'name': 'Matunlijia', 'nr_hotels': 1, 'country': 'cn', 'latitude': '32.0694007873535', 'longitude': '119.752998352051', 'timezone_name': 'Asia/Shanghai', 'timezone_offset': 8}, {'city_id': -3865646, 'name': "Shifo'an", 'nr_hotels': 0, 'country': 'cn', 'latitude': '32.1027984619141', 'longitude': '119.022003173828', 'timezone_name': 'Asia/Shanghai', 'timezone_offset': 8}, {'city_id': -3865637, 'name': 'Shitougang', 'nr_hotels': 0, 'country': 'cn', 'latitude': '32.1472015380859', 'longitude': '119.352996826172', 'timezone_name': 'Asia/Shanghai', 'timezone_offset': 8}, {'city_id': -3865633, 'name': 'Gexiangli', 'nr_hotels': 0, 'country': 'cn', 'latitude': '32.1944007873535', 'longitude': '119.703002929688', 'timezone_name': 'Asia/Shanghai', 'timezone_offset': 8}, {'city_id': -3865632, 'name': 'Jiangdai', 'nr_hotels': 0, 'country': 'cn', 'latitude': '32.1693992614746', 'longitude': '119.668998718262', 'timezone_name': 'Asia/Shanghai', 'timezone_offset': 8}, {'city_id': -3865624, 'name': 'Hanqiao', 'nr_hotels': 0, 'country': 'cn', 'latitude': '32.2144012451172', 'longitude': '119.68399810791', 'timezone_name': 'Asia/Shanghai', 'timezone_offset': 8}, {'city_id': -3865620, 'name': 'Shiye', 'nr_hotels': 0, 'country': 'cn', 'latitude': '32.2139015197754', 'longitude': '119.303001403809', 'timezone_name': 'Asia/Shanghai', 'timezone_offset': 8}, {'city_id': -3865617, 'name': "Yong'anzhou", 'nr_hotels': 1, 'country': 'cn', 'latitude': '32.2491989135742', 'longitude': '119.907997131348', 'timezone_name': 'Asia/Shanghai', 'timezone_offset': 8}, {'city_id': -3865600, 'name': 'Xuzhuang', 'nr_hotels': 0, 'country': 'cn', 'latitude': '32.3286018371582', 'longitude': '119.901000976562', 'timezone_name': 'Asia/Shanghai', 'timezone_offset': 8}, {'city_id': -3865588, 'name': 'Zhongzha', 'nr_hotels': 1, 'country': 'cn', 'latitude': '32.3456001281738', 'longitude': '119.703002929688', 'timezone_name': 'Asia/Shanghai', 'timezone_offset': 8}, {'city_id': -3865577, 'name': 'Tangwang', 'nr_hotels': 0, 'country': 'cn', 'latitude': '32.3694000244141', 'longitude': '119.458000183105', 'timezone_name': 'Asia/Shanghai', 'timezone_offset': 8}, {'city_id': -3865576, 'name': 'Shuangqiao', 'nr_hotels': 0, 'country': 'cn', 'latitude': '32.3889007568359', 'longitude': '119.407997131348', 'timezone_name': 'Asia/Shanghai', 'timezone_offset': 8}, {'city_id': -3865575, 'name': 'Yinjiahu', 'nr_hotels': 0, 'country': 'cn', 'latitude': '32.3972015380859', 'longitude': '119.356002807617', 'timezone_name': 'Asia/Shanghai', 'timezone_offset': 8}, {'city_id': -3865569, 'name': 'Sixiang', 'nr_hotels': 0, 'country': 'cn', 'latitude': '32.3993988037109', 'longitude': '119.886001586914', 'timezone_name': 'Asia/Shanghai', 'timezone_offset': 8}, {'city_id': -3865565, 'name': 'Zhengyi', 'nr_hotels': 0, 'country': 'cn', 'latitude': '32.4082984924316', 'longitude': '119.606002807617', 'timezone_name': 'Asia/Shanghai', 'timezone_offset': 8}, {'city_id': -3865561, 'name': 'Zhangjiaying', 'nr_hotels': 0, 'country': 'cn', 'latitude': '32.4028015136719', 'longitude': '119.296997070312', 'timezone_name': 'Asia/Shanghai', 'timezone_offset': 8}, {'city_id': -3865554, 'name': "Tai'an", 'nr_hotels': 0, 'country': 'cn', 'latitude': '32.4639015197754', 'longitude': '119.513999938965', 'timezone_name': 'Asia/Shanghai', 'timezone_offset': 8}, {'city_id': -3865464, 'name': "Wu'an", 'nr_hotels': 0, 'country': 'cn', 'latitude': '32.763599395752', 'longitude': '119.448997497559', 'timezone_name': 'Asia/Shanghai', 'timezone_offset': 8}, {'city_id': -3865456, 'name': 'Huayuanzhuang', 'nr_hotels': 0, 'country': 'cn', 'latitude': '32.8111000061035', 'longitude': '119.439002990723', 'timezone_name': 'Asia/Shanghai', 'timezone_offset': 8}, {'city_id': -3865443, 'name': 'Lincheng', 'nr_hotels': 0, 'country': 'cn', 'latitude': '32.894401550293', 'longitude': '119.835998535156', 'timezone_name': 'Asia/Shanghai', 'timezone_offset': 8}, {'city_id': -3865436, 'name': 'Duotian', 'nr_hotels': 0, 'country': 'cn', 'latitude': '32.9255981445312', 'longitude': '119.858001708984', 'timezone_name': 'Asia/Shanghai', 'timezone_offset': 8}, {'city_id': -3863887, 'name': 'Bylehamn', 'nr_hotels': 1, 'country': 'se', 'latitude': '59.9000015258789', 'longitude': '18.9832992553711', 'timezone_name': 'Europe/Stockholm', 'timezone_offset': 1}, {'city_id': -3863871, 'name': 'Överlöpe', 'nr_hotels': 0, 'country': 'se', 'latitude': '59.8333015441895', 'longitude': '18.9167003631592', 'timezone_name': 'Europe/Stockholm', 'timezone_offset': 1}, {'city_id': -3863848, 'name': 'Sunddalen', 'nr_hotels': 0, 'country': 'se', 'latitude': '59.7999992370605', 'longitude': '18.8999996185303', 'timezone_name': 'Europe/Stockholm', 'timezone_offset': 1}, {'city_id': -3863847, 'name': 'Norrsjön', 'nr_hotels': 0, 'country': 'se', 'latitude': '59.7750015258789', 'longitude': '18.9333000183105', 'timezone_name': 'Europe/Stockholm', 'timezone_offset': 1}, {'city_id': -3863720, 'name': 'Graciano Sanchez', 'nr_hotels': 0, 'country': 'mx', 'latitude': '22.6499996185303', 'longitude': '-98.5500030517578', 'timezone_name': 'America/Monterrey', 'timezone_offset': -6}, {'city_id': -3863453, 'name': 'San Fernando', 'nr_hotels': 0, 'country': 'mx', 'latitude': '24.8500003814697', 'longitude': '-98.1500015258789', 'timezone_name': 'America/Monterrey', 'timezone_offset': -6}, {'city_id': -3863199, 'name': 'Laredo', 'nr_hotels': 0, 'country': 'mx', 'latitude': '27.4669127113442', 'longitude': '-99.5260925292969', 'timezone_name': 'America/Chicago', 'timezone_offset': -6}, {'city_id': -3863146, 'name': 'Paasonperä', 'nr_hotels': 0, 'country': 'fi', 'latitude': '65.3167037963867', 'longitude': '25.5', 'timezone_name': 'Europe/Helsinki', 'timezone_offset': 2}, {'city_id': -3862919, 'name': 'Gubai', 'nr_hotels': 0, 'country': 'cn', 'latitude': '31.3624992370605', 'longitude': '118.945999145508', 'timezone_name': 'Asia/Shanghai', 'timezone_offset': 8}, {'city_id': -3862905, 'name': 'Caocun', 'nr_hotels': 0, 'country': 'cn', 'latitude': '31.69580078125', 'longitude': '118.925003051758', 'timezone_name': 'Asia/Shanghai', 'timezone_offset': 8}, {'city_id': -3862903, 'name': 'Yaotoucun', 'nr_hotels': 0, 'country': 'cn', 'latitude': '31.7082996368408', 'longitude': '118.712997436523', 'timezone_name': 'Asia/Shanghai', 'timezone_offset': 8}, {'city_id': -3862900, 'name': 'Donghucun', 'nr_hotels': 0, 'country': 'cn', 'latitude': '31.7250003814697', 'longitude': '118.862998962402', 'timezone_name': 'Asia/Shanghai', 'timezone_offset': 8}, {'city_id': -3862896, 'name': 'Dafengcun', 'nr_hotels': 0, 'country': 'cn', 'latitude': '31.7749996185303', 'longitude': '118.682998657227', 'timezone_name': 'Asia/Shanghai', 'timezone_offset': 8}, {'city_id': -3862892, 'name': 'Yangshuwan', 'nr_hotels': 0, 'country': 'cn', 'latitude': '31.7999992370605', 'longitude': '118.883003234863', 'timezone_name': 'Asia/Shanghai', 'timezone_offset': 8}, {'city_id': -3862891, 'name': 'Hutou', 'nr_hotels': 0, 'country': 'cn', 'latitude': '31.8083000183105', 'longitude': '118.787002563477', 'timezone_name': 'Asia/Shanghai', 'timezone_offset': 8}, {'city_id': -3862889, 'name': 'Datangjin', 'nr_hotels': 0, 'country': 'cn', 'latitude': '31.8542003631592', 'longitude': '118.712997436523', 'timezone_name': 'Asia/Shanghai', 'timezone_offset': 8}, {'city_id': -3862887, 'name': 'Qingxiu', 'nr_hotels': 0, 'country': 'cn', 'latitude': '31.8292007446289', 'longitude': '118.596000671387', 'timezone_name': 'Asia/Shanghai', 'timezone_offset': 8}, {'city_id': -3862884, 'name': 'Jiexi', 'nr_hotels': 0, 'country': 'cn', 'latitude': '31.88330078125', 'longitude': '118.900001525879', 'timezone_name': 'Asia/Shanghai', 'timezone_offset': 8}, {'city_id': -3862883, 'name': 'Zhucun', 'nr_hotels': 1, 'country': 'cn', 'latitude': '31.8791999816895', 'longitude': '118.807998657227', 'timezone_name': 'Asia/Shanghai', 'timezone_offset': 8}, {'city_id': -3862877, 'name': 'Fangshan', 'nr_hotels': 0, 'country': 'cn', 'latitude': '31.9125003814697', 'longitude': '118.858001708984', 'timezone_name': 'Asia/Shanghai', 'timezone_offset': 8}, {'city_id': -3862876, 'name': 'Yinxiang', 'nr_hotels': 0, 'country': 'cn', 'latitude': '31.9083003997803', 'longitude': '118.811996459961', 'timezone_name': 'Asia/Shanghai', 'timezone_offset': 8}, {'city_id': -3862875, 'name': 'Sanbanqiao', 'nr_hotels': 0, 'country': 'cn', 'latitude': '31.8999996185303', 'longitude': '118.712997436523', 'timezone_name': 'Asia/Shanghai', 'timezone_offset': 8}, {'city_id': -3862868, 'name': 'Yucun', 'nr_hotels': 0, 'country': 'cn', 'latitude': '31.9832992553711', 'longitude': '118.916999816895', 'timezone_name': 'Asia/Shanghai', 'timezone_offset': 8}, {'city_id': -3862867, 'name': 'Tiexinqiao', 'nr_hotels': 0, 'country': 'cn', 'latitude': '31.9624996185303', 'longitude': '118.75', 'timezone_name': 'Asia/Shanghai', 'timezone_offset': 8}, {'city_id': -3862865, 'name': 'Shazhou', 'nr_hotels': 0, 'country': 'cn', 'latitude': '31.9874992370605', 'longitude': '118.724998474121', 'timezone_name': 'Asia/Shanghai', 'timezone_offset': 8}, {'city_id': -3862857, 'name': 'Shimenkan', 'nr_hotels': 0, 'country': 'cn', 'latitude': '32.0125007629395', 'longitude': '118.791999816895', 'timezone_name': 'Asia/Shanghai', 'timezone_offset': 8}, {'city_id': -3862856, 'name': 'Yuhuazhen', 'nr_hotels': 0, 'country': 'cn', 'latitude': '32.0041999816895', 'longitude': '118.766998291016', 'timezone_name': 'Asia/Shanghai', 'timezone_offset': 8}, {'city_id': -3862854, 'name': 'Jianshe', 'nr_hotels': 1, 'country': 'cn', 'latitude': '32.0167007446289', 'longitude': '118.592002868652', 'timezone_name': 'Asia/Shanghai', 'timezone_offset': 8}, {'city_id': -3862852, 'name': 'Qilin', 'nr_hotels': 0, 'country': 'cn', 'latitude': '32.05419921875', 'longitude': '118.916999816895', 'timezone_name': 'Asia/Shanghai', 'timezone_offset': 8}, {'city_id': -3862851, 'name': 'Xiaoshizhen', 'nr_hotels': 0, 'country': 'cn', 'latitude': '32.0999984741211', 'longitude': '118.782997131348', 'timezone_name': 'Asia/Shanghai', 'timezone_offset': 8}, {'city_id': -3862850, 'name': 'Chengdong', 'nr_hotels': 0, 'country': 'cn', 'latitude': '32.0750007629395', 'longitude': '118.625', 'timezone_name': 'Asia/Shanghai', 'timezone_offset': 8}, {'city_id': -3862844, 'name': 'Dongchanglin', 'nr_hotels': 0, 'country': 'cn', 'latitude': '32.1124992370605', 'longitude': '118.954002380371', 'timezone_name': 'Asia/Shanghai', 'timezone_offset': 8}, {'city_id': -3862843, 'name': 'Qianjiadu', 'nr_hotels': 0, 'country': 'cn', 'latitude': '32.125', 'longitude': '118.920997619629', 'timezone_name': 'Asia/Shanghai', 'timezone_offset': 8}, {'city_id': -3862841, 'name': 'Taishanxinzhen', 'nr_hotels': 0, 'country': 'cn', 'latitude': '32.1478004455566', 'longitude': '118.708000183105', 'timezone_name': 'Asia/Shanghai', 'timezone_offset': 8}, {'city_id': -3862835, 'name': 'Daizhuang', 'nr_hotels': 0, 'country': 'cn', 'latitude': '32.1833000183105', 'longitude': '118.916999816895', 'timezone_name': 'Asia/Shanghai', 'timezone_offset': 8}, {'city_id': -3862831, 'name': 'Yanjiang', 'nr_hotels': 0, 'country': 'cn', 'latitude': '32.1666984558105', 'longitude': '118.712997436523', 'timezone_name': 'Asia/Shanghai', 'timezone_offset': 8}, {'city_id': -3862829, 'name': 'Shenzhuang', 'nr_hotels': 0, 'country': 'cn', 'latitude': '32.1749992370605', 'longitude': '118.670997619629', 'timezone_name': 'Asia/Shanghai', 'timezone_offset': 8}, {'city_id': -3862815, 'name': 'Taiwan', 'nr_hotels': 0, 'country': 'cn', 'latitude': '32.3250007629395', 'longitude': '118.762001037598', 'timezone_name': 'Asia/Shanghai', 'timezone_offset': 8}, {'city_id': -3862804, 'name': 'Zaoyuan', 'nr_hotels': 0, 'country': 'cn', 'latitude': '32.42919921875', 'longitude': '118.978996276855', 'timezone_name': 'Asia/Shanghai', 'timezone_offset': 8}, {'city_id': -3862774, 'name': 'Chachang', 'nr_hotels': 0, 'country': 'cn', 'latitude': '32.7874984741211', 'longitude': '118.641998291016', 'timezone_name': 'Asia/Shanghai', 'timezone_offset': 8}, {'city_id': -3862773, 'name': 'Wangdian', 'nr_hotels': 0, 'country': 'cn', 'latitude': '32.7902984619141', 'longitude': '118.587997436523', 'timezone_name': 'Asia/Shanghai', 'timezone_offset': 8}, {'city_id': -3862728, 'name': 'Sanhe', 'nr_hotels': 0, 'country': 'cn', 'latitude': '33.11669921875', 'longitude': '118.787002563477', 'timezone_name': 'Asia/Shanghai', 'timezone_offset': 8}, {'city_id': -3862709, 'name': 'Duzhuang', 'nr_hotels': 0, 'country': 'cn', 'latitude': '33.2874984741211', 'longitude': '118.932998657227', 'timezone_name': 'Asia/Shanghai', 'timezone_offset': 8}, {'city_id': -3862707, 'name': 'Gaojian', 'nr_hotels': 0, 'country': 'cn', 'latitude': '33.2916984558105', 'longitude': '118.866996765137', 'timezone_name': 'Asia/Shanghai', 'timezone_offset': 8}, {'city_id': -3862599, 'name': 'Geji', 'nr_hotels': 0, 'country': 'cn', 'latitude': '33.7332992553711', 'longitude': '118.737998962402', 'timezone_name': 'Asia/Shanghai', 'timezone_offset': 8}, {'city_id': -3862533, 'name': 'Zhuoxu', 'nr_hotels': 0, 'country': 'cn', 'latitude': '33.9333000183105', 'longitude': '118.353996276855', 'timezone_name': 'Asia/Shanghai', 'timezone_offset': 8}, {'city_id': -3862511, 'name': 'Xinzhuang', 'nr_hotels': 0, 'country': 'cn', 'latitude': '33.9625015258789', 'longitude': '118.454002380371', 'timezone_name': 'Asia/Shanghai', 'timezone_offset': 8}, {'city_id': -3861417, 'name': 'Encarnación', 'nr_hotels': 0, 'country': 'mx', 'latitude': '22.25', 'longitude': '-102.932998657227', 'timezone_name': 'America/Mexico_City', 'timezone_offset': -6}, {'city_id': -3861307, 'name': 'Bajío de San Nicolás', 'nr_hotels': 0, 'country': 'mx', 'latitude': '22.5666999816895', 'longitude': '-102', 'timezone_name': 'America/Mexico_City', 'timezone_offset': -6}, {'city_id': -3861223, 'name': 'El Orito', 'nr_hotels': 0, 'country': 'mx', 'latitude': '22.75', 'longitude': '-102.599998474121', 'timezone_name': 'America/Mexico_City', 'timezone_offset': -6}, {'city_id': -3860785, 'name': 'El Noventa', 'nr_hotels': 0, 'country': 'mx', 'latitude': '23.4666996002197', 'longitude': '-102.666999816895', 'timezone_name': 'America/Mexico_City', 'timezone_offset': -6}, {'city_id': -3860387, 'name': 'El Encinal', 'nr_hotels': 0, 'country': 'mx', 'latitude': '23.9500007629395', 'longitude': '-102.616996765137', 'timezone_name': 'America/Mexico_City', 'timezone_offset': -6}, {'city_id': -3860377, 'name': 'Matías Ramos', 'nr_hotels': 0, 'country': 'mx', 'latitude': '24.1833000183105', 'longitude': '-102.733001708984', 'timezone_name': 'America/Mexico_City', 'timezone_offset': -6}, {'city_id': -3860166, 'name': 'Zacatipa', 'nr_hotels': 0, 'country': 'mx', 'latitude': '21.38330078125', 'longitude': '-99.0667037963867', 'timezone_name': 'America/Mexico_City', 'timezone_offset': -6}, {'city_id': -3860165, 'name': 'Apetzco', 'nr_hotels': 0, 'country': 'mx', 'latitude': '21.38330078125', 'longitude': '-99.0167007446289', 'timezone_name': 'America/Mexico_City', 'timezone_offset': -6}, {'city_id': -3860164, 'name': 'Ahuayo', 'nr_hotels': 0, 'country': 'mx', 'latitude': '21.4167003631592', 'longitude': '-99.0167007446289', 'timezone_name': 'America/Mexico_City', 'timezone_offset': -6}, {'city_id': -3860065, 'name': 'Beatriz', 'nr_hotels': 0, 'country': 'mx', 'latitude': '21.75', 'longitude': '-98.9666976928711', 'timezone_name': 'America/Mexico_City', 'timezone_offset': -6}, {'city_id': -3860025, 'name': 'Los Nopales', 'nr_hotels': 0, 'country': 'mx', 'latitude': '21.9167003631592', 'longitude': '-98.9832992553711', 'timezone_name': 'America/Mexico_City', 'timezone_offset': -6}, {'city_id': -3860010, 'name': 'Antiguo Tamuín', 'nr_hotels': 1, 'country': 'mx', 'latitude': '21.9832992553711', 'longitude': '-98.7667007446289', 'timezone_name': 'America/Mexico_City', 'timezone_offset': -6}, {'city_id': -3859926, 'name': 'Los Remedios', 'nr_hotels': 0, 'country': 'mx', 'latitude': '21.9167003631592', 'longitude': '-99.1832962036133', 'timezone_name': 'America/Mexico_City', 'timezone_offset': -6}, {'city_id': -3859853, 'name': 'Bordo Blanco', 'nr_hotels': 0, 'country': 'mx', 'latitude': '21.8500003814697', 'longitude': '-99.9666976928711', 'timezone_name': 'America/Mexico_City', 'timezone_offset': -6}, {'city_id': -3859627, 'name': 'Valles', 'nr_hotels': 1, 'country': 'mx', 'latitude': '22.0167007446289', 'longitude': '-99.0667037963867', 'timezone_name': 'America/Mexico_City', 'timezone_offset': -6}, {'city_id': -3859609, 'name': 'Damían Carmona', 'nr_hotels': 2, 'country': 'mx', 'latitude': '22.0832996368408', 'longitude': '-99.3000030517578', 'timezone_name': 'America/Mexico_City', 'timezone_offset': -6}, {'city_id': -3859451, 'name': 'El Progeso', 'nr_hotels': 0, 'country': 'mx', 'latitude': '22.25', 'longitude': '-100.133003234863', 'timezone_name': 'America/Mexico_City', 'timezone_offset': -6}, {'city_id': -3859417, 'name': 'La Esperanza', 'nr_hotels': 0, 'country': 'mx', 'latitude': '22.0167007446289', 'longitude': '-100.766998291016', 'timezone_name': 'America/Mexico_City', 'timezone_offset': -6}, {'city_id': -3859396, 'name': 'San Nicolás', 'nr_hotels': 0, 'country': 'mx', 'latitude': '22.13330078125', 'longitude': '-100.849998474121', 'timezone_name': 'America/Mexico_City', 'timezone_offset': -6}, {'city_id': -3859395, 'name': 'La Libertad', 'nr_hotels': 0, 'country': 'mx', 'latitude': '22.13330078125', 'longitude': '-100.883003234863', 'timezone_name': 'America/Mexico_City', 'timezone_offset': -6}, {'city_id': -3859367, 'name': 'Rancho Nuevo de la Cruz', 'nr_hotels': 0, 'country': 'mx', 'latitude': '22.38330078125', 'longitude': '-100.550003051758', 'timezone_name': 'America/Mexico_City', 'timezone_offset': -6}, {'city_id': -3859329, 'name': 'Pozuelos', 'nr_hotels': 0, 'country': 'mx', 'latitude': '22.0832996368408', 'longitude': '-101.116996765137', 'timezone_name': 'America/Mexico_City', 'timezone_offset': -6}, {'city_id': -3859316, 'name': 'Suspiro Picacho', 'nr_hotels': 0, 'country': 'mx', 'latitude': '22.2000007629395', 'longitude': '-101.083000183105', 'timezone_name': 'America/Mexico_City', 'timezone_offset': -6}, {'city_id': -3859271, 'name': 'El Naranjo', 'nr_hotels': 2, 'country': 'mx', 'latitude': '22.52089', 'longitude': '-99.32355', 'timezone_name': 'America/Mexico_City', 'timezone_offset': -6}, {'city_id': -3859075, 'name': 'El Carmen', 'nr_hotels': 0, 'country': 'mx', 'latitude': '22.6667003631592', 'longitude': '-101.717002868652', 'timezone_name': 'America/Mexico_City', 'timezone_offset': -6}, {'city_id': -3858965, 'name': 'El Matorral', 'nr_hotels': 0, 'country': 'mx', 'latitude': '23.2999992370605', 'longitude': '-100.800003051758', 'timezone_name': 'America/Mexico_City', 'timezone_offset': -6}, {'city_id': -3858789, 'name': 'San Rafael de las Torres', 'nr_hotels': 0, 'country': 'mx', 'latitude': '23.61669921875', 'longitude': '-100.967002868652', 'timezone_name': 'America/Mexico_City', 'timezone_offset': -6}, {'city_id': -3858784, 'name': 'El Mastranto', 'nr_hotels': 0, 'country': 'mx', 'latitude': '23.6499996185303', 'longitude': '-100.949996948242', 'timezone_name': 'America/Mexico_City', 'timezone_offset': -6}, {'city_id': -3858779, 'name': 'El Refugio', 'nr_hotels': 0, 'country': 'mx', 'latitude': '23.7000007629395', 'longitude': '-100.866996765137', 'timezone_name': 'America/Mexico_City', 'timezone_offset': -6}, {'city_id': -3857139, 'name': 'Zhuwei', 'nr_hotels': 0, 'country': 'cn', 'latitude': '34.00830078125', 'longitude': '118.442001342773', 'timezone_name': 'Asia/Shanghai', 'timezone_offset': 8}, {'city_id': -3857136, 'name': 'Liuzhuang', 'nr_hotels': 0, 'country': 'cn', 'latitude': '34.0250015258789', 'longitude': '118.28099822998', 'timezone_name': 'Asia/Shanghai', 'timezone_offset': 8}, {'city_id': -3857128, 'name': 'Xiaodian', 'nr_hotels': 0, 'country': 'cn', 'latitude': '34.0555992126465', 'longitude': '118.303001403809', 'timezone_name': 'Asia/Shanghai', 'timezone_offset': 8}, {'city_id': -3857123, 'name': 'Tangfang', 'nr_hotels': 0, 'country': 'cn', 'latitude': '34.0861015319824', 'longitude': '118.842002868652', 'timezone_name': 'Asia/Shanghai', 'timezone_offset': 8}, {'city_id': -3857122, 'name': 'Xuzhuang', 'nr_hotels': 1, 'country': 'cn', 'latitude': '34.0971984863281', 'longitude': '118.791999816895', 'timezone_name': 'Asia/Shanghai', 'timezone_offset': 8}, {'city_id': -3857113, 'name': 'Guoyuan', 'nr_hotels': 0, 'country': 'cn', 'latitude': '34.1194000244141', 'longitude': '118.805999755859', 'timezone_name': 'Asia/Shanghai', 'timezone_offset': 8}, {'city_id': -3857049, 'name': 'Houbaoche', 'nr_hotels': 0, 'country': 'cn', 'latitude': '34.2943992614746', 'longitude': '118.002998352051', 'timezone_name': 'Asia/Shanghai', 'timezone_offset': 8}, {'city_id': -3856869, 'name': 'Xiahetou', 'nr_hotels': 0, 'country': 'cn', 'latitude': '34.230598449707', 'longitude': '117.25', 'timezone_name': 'Asia/Shanghai', 'timezone_offset': 8}, {'city_id': -3856868, 'name': 'Beizhaishan', 'nr_hotels': 0, 'country': 'cn', 'latitude': '34.2056007385254', 'longitude': '117.180999755859', 'timezone_name': 'Asia/Shanghai', 'timezone_offset': 8}, {'city_id': -3856867, 'name': 'Chapeng', 'nr_hotels': 0, 'country': 'cn', 'latitude': '34.2193984985352', 'longitude': '117.150001525879', 'timezone_name': 'Asia/Shanghai', 'timezone_offset': 8}, {'city_id': -3856853, 'name': 'Shizishan', 'nr_hotels': 0, 'country': 'cn', 'latitude': '34.25', 'longitude': '117.213996887207', 'timezone_name': 'Asia/Shanghai', 'timezone_offset': 8}, {'city_id': -3856842, 'name': 'Donghecun', 'nr_hotels': 0, 'country': 'cn', 'latitude': '34.2750015258789', 'longitude': '117.282997131348', 'timezone_name': 'Asia/Shanghai', 'timezone_offset': 8}, {'city_id': -3856811, 'name': 'Quanhe', 'nr_hotels': 1, 'country': 'cn', 'latitude': '34.386100769043', 'longitude': '117.460998535156', 'timezone_name': 'Asia/Shanghai', 'timezone_offset': 8}, {'city_id': -3856799, 'name': 'Daquan', 'nr_hotels': 0, 'country': 'cn', 'latitude': '34.4277992248535', 'longitude': '117.460998535156', 'timezone_name': 'Asia/Shanghai', 'timezone_offset': 8}, {'city_id': -3856288, 'name': 'Troppberg', 'nr_hotels': 0, 'country': 'at', 'latitude': '48.2167015075684', 'longitude': '16.1000003814697', 'timezone_name': 'Europe/Vienna', 'timezone_offset': 1}, {'city_id': -3856253, 'name': 'Irenental', 'nr_hotels': 0, 'country': 'at', 'latitude': '48.20424', 'longitude': '16.09802', 'timezone_name': 'Europe/Vienna', 'timezone_offset': 1}, {'city_id': -3856252, 'name': 'Brettwies', 'nr_hotels': 1, 'country': 'at', 'latitude': '48.2000007629395', 'longitude': '16.1000003814697', 'timezone_name': 'Europe/Vienna', 'timezone_offset': 1}, {'city_id': -3855863, 'name': 'Einöde', 'nr_hotels': 0, 'country': 'at', 'latitude': '48.0167007446289', 'longitude': '16.2332992553711', 'timezone_name': 'Europe/Vienna', 'timezone_offset': 1}, {'city_id': -3855706, 'name': 'Zhangtangzhuang', 'nr_hotels': 0, 'country': 'cn', 'latitude': '34.0499992370605', 'longitude': '119.199996948242', 'timezone_name': 'Asia/Shanghai', 'timezone_offset': 8}, {'city_id': -3855656, 'name': 'Changmao', 'nr_hotels': 0, 'country': 'cn', 'latitude': '34.2167015075684', 'longitude': '119.574996948242', 'timezone_name': 'Asia/Shanghai', 'timezone_offset': 8}, {'city_id': -3855635, 'name': 'Chaohe', 'nr_hotels': 0, 'country': 'cn', 'latitude': '34.3333015441895', 'longitude': '119.853996276855', 'timezone_name': 'Asia/Shanghai', 'timezone_offset': 8}, {'city_id': -3855634, 'name': 'Caogang', 'nr_hotels': 0, 'country': 'cn', 'latitude': '34.3499984741211', 'longitude': '119.795997619629', 'timezone_name': 'Asia/Shanghai', 'timezone_offset': 8}, {'city_id': -3855605, 'name': 'Xudagou', 'nr_hotels': 0, 'country': 'cn', 'latitude': '34.3541984558105', 'longitude': '119.532997131348', 'timezone_name': 'Asia/Shanghai', 'timezone_offset': 8}, {'city_id': -3855570, 'name': 'Dongtangzhuang', 'nr_hotels': 0, 'country': 'cn', 'latitude': '34.4249992370605', 'longitude': '119.241996765137', 'timezone_name': 'Asia/Shanghai', 'timezone_offset': 8}, {'city_id': -3855566, 'name': 'Qiandatun', 'nr_hotels': 0, 'country': 'cn', 'latitude': '34.44580078125', 'longitude': '119.083000183105', 'timezone_name': 'Asia/Shanghai', 'timezone_offset': 8}, {'city_id': -3855555, 'name': 'Hongmenxiang', 'nr_hotels': 0, 'country': 'cn', 'latitude': '34.55419921875', 'longitude': '119.170997619629', 'timezone_name': 'Asia/Shanghai', 'timezone_offset': 8}, {'city_id': -3855548, 'name': 'Yunshan', 'nr_hotels': 0, 'country': 'cn', 'latitude': '34.7000007629395', 'longitude': '119.366996765137', 'timezone_name': 'Asia/Shanghai', 'timezone_offset': 8}, {'city_id': -3855547, 'name': 'Huaguoshan', 'nr_hotels': 0, 'country': 'cn', 'latitude': '34.6417007446289', 'longitude': '119.233001708984', 'timezone_name': 'Asia/Shanghai', 'timezone_offset': 8}, {'city_id': -3855546, 'name': 'Danglu', 'nr_hotels': 1, 'country': 'cn', 'latitude': '34.625', 'longitude': '119.233001708984', 'timezone_name': 'Asia/Shanghai', 'timezone_offset': 8}, {'city_id': -3855532, 'name': 'Dapanzi', 'nr_hotels': 0, 'country': 'cn', 'latitude': '34.8791999816895', 'longitude': '119.153999328613', 'timezone_name': 'Asia/Shanghai', 'timezone_offset': 8}, {'city_id': -3852752, 'name': 'San Rafael', 'nr_hotels': 0, 'country': 'mx', 'latitude': '27.4832992553711', 'longitude': '-107.866996765137', 'timezone_name': 'America/Chihuahua', 'timezone_offset': -7}, {'city_id': -3852482, 'name': 'Mogolabo', 'nr_hotels': 0, 'country': 'mx', 'latitude': '27.5499992370605', 'longitude': '-107.782997131348', 'timezone_name': 'America/Chihuahua', 'timezone_offset': -7}, {'city_id': -3852255, 'name': 'Lazaro Cardenas', 'nr_hotels': 0, 'country': 'mx', 'latitude': '28.3999996185303', 'longitude': '-105.616996765137', 'timezone_name': 'America/Chihuahua', 'timezone_offset': -7}, {'city_id': -3852054, 'name': 'La Cendradita', 'nr_hotels': 0, 'country': 'mx', 'latitude': '28.9500007629395', 'longitude': '-106.317001342773', 'timezone_name': 'America/Chihuahua', 'timezone_offset': -7}, {'city_id': -3851997, 'name': 'Huichigomachi', 'nr_hotels': 0, 'country': 'mx', 'latitude': '27.6499996185303', 'longitude': '-107.849998474121', 'timezone_name': 'America/Chihuahua', 'timezone_offset': -7}, {'city_id': -3851797, 'name': 'El Sauzal', 'nr_hotels': 1, 'country': 'mx', 'latitude': '31.61669921875', 'longitude': '-106.333000183105', 'timezone_name': 'America/Ojinaga', 'timezone_offset': -7}, {'city_id': -3851271, 'name': 'Bajío Las Palmas', 'nr_hotels': 0, 'country': 'mx', 'latitude': '26.8166999816895', 'longitude': '-107.083000183105', 'timezone_name': 'America/Chihuahua', 'timezone_offset': -7}, {'city_id': -3851221, 'name': 'Alfredo V. Bonfil', 'nr_hotels': 0, 'country': 'mx', 'latitude': '31.7833003997803', 'longitude': '-106.583000183105', 'timezone_name': 'America/Ojinaga', 'timezone_offset': -7}, {'city_id': -3846887, 'name': 'Berengaria Village', 'nr_hotels': 0, 'country': 'cy', 'latitude': '34.7000007629395', 'longitude': '33', 'timezone_name': 'Asia/Nicosia', 'timezone_offset': 2}, {'city_id': -3846765, 'name': 'Souni', 'nr_hotels': 0, 'country': 'cy', 'latitude': '34.74169921875', 'longitude': '32.8875007629395', 'timezone_name': 'Asia/Nicosia', 'timezone_offset': 2}, {'city_id': -3846762, 'name': 'Zanaja', 'nr_hotels': 1, 'country': 'cy', 'latitude': '34.7332992553711', 'longitude': '32.8791999816895', 'timezone_name': 'Asia/Nicosia', 'timezone_offset': 2}, {'city_id': -3846088, 'name': 'Größing', 'nr_hotels': 0, 'country': 'at', 'latitude': '47.5', 'longitude': '14.5333003997803', 'timezone_name': 'Europe/Vienna', 'timezone_offset': 1}, {'city_id': -3845879, 'name': 'Pölsen', 'nr_hotels': 0, 'country': 'at', 'latitude': '47.4166984558105', 'longitude': '14.4499998092651', 'timezone_name': 'Europe/Vienna', 'timezone_offset': 1}, {'city_id': -3845700, 'name': 'Hinterwinkel', 'nr_hotels': 0, 'country': 'at', 'latitude': '47.3499984741211', 'longitude': '14.3332996368408', 'timezone_name': 'Europe/Vienna', 'timezone_offset': 1}, {'city_id': -3845684, 'name': 'Lerchgraben', 'nr_hotels': 0, 'country': 'at', 'latitude': '47.3333015441895', 'longitude': '14.4833002090454', 'timezone_name': 'Europe/Vienna', 'timezone_offset': 1}, {'city_id': -3845530, 'name': 'Wenischgraben', 'nr_hotels': 1, 'country': 'at', 'latitude': '47.2832984924316', 'longitude': '14.5166997909546', 'timezone_name': 'Europe/Vienna', 'timezone_offset': 1}, {'city_id': -3845518, 'name': 'Falting', 'nr_hotels': 1, 'country': 'at', 'latitude': '47.2738990783691', 'longitude': '14.4933004379272', 'timezone_name': 'Europe/Vienna', 'timezone_offset': 1}, {'city_id': -3845408, 'name': 'Lachtal', 'nr_hotels': 18, 'country': 'at', 'latitude': '47.25249', 'longitude': '14.36824', 'timezone_name': 'Europe/Vienna', 'timezone_offset': 1}, {'city_id': -3842657, 'name': 'Zhaigongping', 'nr_hotels': 0, 'country': 'cn', 'latitude': '27.9013996124268', 'longitude': '108.750999450684', 'timezone_name': 'Asia/Shanghai', 'timezone_offset': 8}, {'city_id': -3842611, 'name': 'Yinzhan', 'nr_hotels': 1, 'country': 'cn', 'latitude': '27.111400604248', 'longitude': '107.466003417969', 'timezone_name': 'Asia/Shanghai', 'timezone_offset': 8}, {'city_id': -3842165, 'name': 'Shiren', 'nr_hotels': 0, 'country': 'cn', 'latitude': '29.034200668335', 'longitude': '107.38500213623', 'timezone_name': 'Asia/Shanghai', 'timezone_offset': 8}, {'city_id': -3839733, 'name': 'Stornäset', 'nr_hotels': 0, 'country': 'se', 'latitude': '62.4536018371582', 'longitude': '17.4724998474121', 'timezone_name': 'Europe/Stockholm', 'timezone_offset': 1}, {'city_id': -3839677, 'name': 'Södermalm', 'nr_hotels': 0, 'country': 'se', 'latitude': '62.3847007751465', 'longitude': '17.2861003875732', 'timezone_name': 'Europe/Stockholm', 'timezone_offset': 1}, {'city_id': -3838535, 'name': 'Dīzaj', 'nr_hotels': 0, 'country': 'ir', 'latitude': '36.2332992553711', 'longitude': '50.0499992370605', 'timezone_name': 'Asia/Tehran', 'timezone_offset': 4}, {'city_id': -3836165, 'name': 'Nahui', 'nr_hotels': 0, 'country': 'cn', 'latitude': '24.9582996368408', 'longitude': '104.932998657227', 'timezone_name': 'Asia/Shanghai', 'timezone_offset': 8}, {'city_id': -3836082, 'name': 'Hanglong', 'nr_hotels': 0, 'country': 'cn', 'latitude': '25.6875', 'longitude': '106.896003723145', 'timezone_name': 'Asia/Shanghai', 'timezone_offset': 8}, {'city_id': -3836021, 'name': 'Zhaoti', 'nr_hotels': 0, 'country': 'cn', 'latitude': '25.1000003814697', 'longitude': '105.487998962402', 'timezone_name': 'Asia/Shanghai', 'timezone_offset': 8}, {'city_id': -3836015, 'name': 'Louna', 'nr_hotels': 0, 'country': 'cn', 'latitude': '25.1042003631592', 'longitude': '105.016998291016', 'timezone_name': 'Asia/Shanghai', 'timezone_offset': 8}, {'city_id': -3835991, 'name': 'Zhulin', 'nr_hotels': 0, 'country': 'cn', 'latitude': '25.2292003631592', 'longitude': '105.182998657227', 'timezone_name': 'Asia/Shanghai', 'timezone_offset': 8}, {'city_id': -3835976, 'name': 'Dabei', 'nr_hotels': 1, 'country': 'cn', 'latitude': '25.4249992370605', 'longitude': '105.625', 'timezone_name': 'Asia/Shanghai', 'timezone_offset': 8}, {'city_id': -3835959, 'name': 'Yangsitun', 'nr_hotels': 0, 'country': 'cn', 'latitude': '25.4167003631592', 'longitude': '105.217002868652', 'timezone_name': 'Asia/Shanghai', 'timezone_offset': 8}, {'city_id': -3835951, 'name': 'Jintang', 'nr_hotels': 0, 'country': 'cn', 'latitude': '25.49169921875', 'longitude': '105.003997802734', 'timezone_name': 'Asia/Shanghai', 'timezone_offset': 8}, {'city_id': -3835891, 'name': 'Shizi', 'nr_hotels': 0, 'country': 'cn', 'latitude': '25.8332996368408', 'longitude': '105.233001708984', 'timezone_name': 'Asia/Shanghai', 'timezone_offset': 8}, {'city_id': -3835862, 'name': 'Fengdu', 'nr_hotels': 0, 'country': 'cn', 'latitude': '25.0499992370605', 'longitude': '104.949996948242', 'timezone_name': 'Asia/Shanghai', 'timezone_offset': 8}, {'city_id': -3835772, 'name': 'Hjälta', 'nr_hotels': 1, 'country': 'se', 'latitude': '62.9832992553711', 'longitude': '17.86669921875', 'timezone_name': 'Europe/Stockholm', 'timezone_offset': 1}, {'city_id': -3835754, 'name': 'Bergsviken', 'nr_hotels': 0, 'country': 'se', 'latitude': '62.9166984558105', 'longitude': '17.9333000183105', 'timezone_name': 'Europe/Stockholm', 'timezone_offset': 1}, {'city_id': -3835699, 'name': 'Sandöverken', 'nr_hotels': 3, 'country': 'se', 'latitude': '62.8166999816895', 'longitude': '17.9832992553711', 'timezone_name': 'Europe/Stockholm', 'timezone_offset': 1}, {'city_id': -3835541, 'name': 'Huishui', 'nr_hotels': 0, 'country': 'cn', 'latitude': '26.11669921875', 'longitude': '106.650001525879', 'timezone_name': 'Asia/Shanghai', 'timezone_offset': 8}, {'city_id': -3835500, 'name': 'Dangwu', 'nr_hotels': 1, 'country': 'cn', 'latitude': '26.3871994018555', 'longitude': '106.58699798584', 'timezone_name': 'Asia/Shanghai', 'timezone_offset': 8}, {'city_id': -3835488, 'name': 'Jinzhuzhen', 'nr_hotels': 0, 'country': 'cn', 'latitude': '26.6583003997803', 'longitude': '106.650001525879', 'timezone_name': 'Asia/Shanghai', 'timezone_offset': 8}, {'city_id': -3835476, 'name': 'Dongmenqiao', 'nr_hotels': 0, 'country': 'cn', 'latitude': '26.5583000183105', 'longitude': '106.483001708984', 'timezone_name': 'Asia/Shanghai', 'timezone_offset': 8}, {'city_id': -3835461, 'name': 'Yanshanhong', 'nr_hotels': 0, 'country': 'cn', 'latitude': '26.6667003631592', 'longitude': '106.641998291016', 'timezone_name': 'Asia/Shanghai', 'timezone_offset': 8}, {'city_id': -3835408, 'name': 'Huangguoshu Zhen', 'nr_hotels': 0, 'country': 'cn', 'latitude': '25.9981002807617', 'longitude': '105.657997131348', 'timezone_name': 'Asia/Shanghai', 'timezone_offset': 8}, {'city_id': -3835402, 'name': 'Xinggong', 'nr_hotels': 0, 'country': 'cn', 'latitude': '26.0333003997803', 'longitude': '105.633003234863', 'timezone_name': 'Asia/Shanghai', 'timezone_offset': 8}, {'city_id': -3835368, 'name': 'Yutang', 'nr_hotels': 0, 'country': 'cn', 'latitude': '26.1833000183105', 'longitude': '105.483001708984', 'timezone_name': 'Asia/Shanghai', 'timezone_offset': 8}, {'city_id': -3835363, 'name': 'Pingzhai Zhen', 'nr_hotels': 0, 'country': 'cn', 'latitude': '26.2219009399414', 'longitude': '105.452003479004', 'timezone_name': 'Asia/Shanghai', 'timezone_offset': 8}, {'city_id': -3835246, 'name': 'Maochang', 'nr_hotels': 0, 'country': 'cn', 'latitude': '26.75', 'longitude': '105.375', 'timezone_name': 'Asia/Shanghai', 'timezone_offset': 8}, {'city_id': -3834397, 'name': 'Bäcknäset', 'nr_hotels': 0, 'country': 'se', 'latitude': '63.5167007446289', 'longitude': '19.5832996368408', 'timezone_name': 'Europe/Stockholm', 'timezone_offset': 1}, {'city_id': -3834031, 'name': 'Steg', 'nr_hotels': 0, 'country': 'at', 'latitude': '47.2167015075684', 'longitude': '12.8332996368408', 'timezone_name': 'Europe/Vienna', 'timezone_offset': 1}, {'city_id': -3834030, 'name': 'Herrenhaus', 'nr_hotels': 0, 'country': 'at', 'latitude': '47.2167015075684', 'longitude': '12.8332996368408', 'timezone_name': 'Europe/Vienna', 'timezone_offset': 1}, {'city_id': -3833526, 'name': 'Marx', 'nr_hotels': 0, 'country': 'at', 'latitude': '47.0499992370605', 'longitude': '12.8166999816895', 'timezone_name': 'Europe/Vienna', 'timezone_offset': 1}, {'city_id': -3832582, 'name': 'Hailong', 'nr_hotels': 0, 'country': 'cn', 'latitude': '27.7752990722656', 'longitude': '106.857002258301', 'timezone_name': 'Asia/Shanghai', 'timezone_offset': 8}, {'city_id': -3832276, 'name': 'Chayuan', 'nr_hotels': 0, 'country': 'cn', 'latitude': '28.3474998474121', 'longitude': '106.458999633789', 'timezone_name': 'Asia/Shanghai', 'timezone_offset': 8}, {'city_id': -3832219, 'name': "Bing'an", 'nr_hotels': 0, 'country': 'cn', 'latitude': '28.4650001525879', 'longitude': '105.830001831055', 'timezone_name': 'Asia/Shanghai', 'timezone_offset': 8}, {'city_id': -3832218, 'name': 'Kaixuan', 'nr_hotels': 0, 'country': 'cn', 'latitude': '28.4650001525879', 'longitude': '105.766998291016', 'timezone_name': 'Asia/Shanghai', 'timezone_offset': 8}, {'city_id': -3831972, 'name': 'Båkskäret', 'nr_hotels': 0, 'country': 'se', 'latitude': '63.99169921875', 'longitude': '20.8999996185303', 'timezone_name': 'Europe/Stockholm', 'timezone_offset': 1}, {'city_id': -3830539, 'name': 'Shangyang', 'nr_hotels': 0, 'country': 'cn', 'latitude': '30.8332996368408', 'longitude': '119.467002868652', 'timezone_name': 'Asia/Shanghai', 'timezone_offset': 8}, {'city_id': -3830411, 'name': 'Qiaotou', 'nr_hotels': 0, 'country': 'cn', 'latitude': '30.9416999816895', 'longitude': '118.583000183105', 'timezone_name': 'Asia/Shanghai', 'timezone_offset': 8}, {'city_id': -3830356, 'name': 'Hejiadian', 'nr_hotels': 1, 'country': 'cn', 'latitude': '30.8999996185303', 'longitude': '118.358001708984', 'timezone_name': 'Asia/Shanghai', 'timezone_offset': 8}, {'city_id': -3830237, 'name': 'Xihu', 'nr_hotels': 0, 'country': 'cn', 'latitude': '30.9416999816895', 'longitude': '117.849998474121', 'timezone_name': 'Asia/Shanghai', 'timezone_offset': 8}, {'city_id': -3830199, 'name': 'Xinhangzhen', 'nr_hotels': 0, 'country': 'cn', 'latitude': '31.0750007629395', 'longitude': '119.550003051758', 'timezone_name': 'Asia/Shanghai', 'timezone_offset': 8}, {'city_id': -3830174, 'name': 'Xianzhuchang', 'nr_hotels': 0, 'country': 'cn', 'latitude': '31.1667003631592', 'longitude': '119.217002868652', 'timezone_name': 'Asia/Shanghai', 'timezone_offset': 8}, {'city_id': -3830109, 'name': 'Liangzhongchang', 'nr_hotels': 0, 'country': 'cn', 'latitude': '31.13330078125', 'longitude': '118.583000183105', 'timezone_name': 'Asia/Shanghai', 'timezone_offset': 8}, {'city_id': -3830103, 'name': 'Yangtian', 'nr_hotels': 0, 'country': 'cn', 'latitude': '31.2000007629395', 'longitude': '118.942001342773', 'timezone_name': 'Asia/Shanghai', 'timezone_offset': 8}, {'city_id': -3830087, 'name': 'Laocunjie', 'nr_hotels': 0, 'country': 'cn', 'latitude': '31.1833000183105', 'longitude': '118.616996765137', 'timezone_name': 'Asia/Shanghai', 'timezone_offset': 8}, {'city_id': -3830044, 'name': 'Wuli', 'nr_hotels': 0, 'country': 'cn', 'latitude': '31.0666999816895', 'longitude': '118.175003051758', 'timezone_name': 'Asia/Shanghai', 'timezone_offset': 8}, {'city_id': -3829849, 'name': 'Zanghan', 'nr_hotels': 0, 'country': 'cn', 'latitude': '31.5583000183105', 'longitude': '118.557998657227', 'timezone_name': 'Asia/Shanghai', 'timezone_offset': 8}, {'city_id': -3829836, 'name': 'Xushan', 'nr_hotels': 0, 'country': 'cn', 'latitude': '31.6417007446289', 'longitude': '118.633003234863', 'timezone_name': 'Asia/Shanghai', 'timezone_offset': 8}, {'city_id': -3829831, 'name': 'Jiashan', 'nr_hotels': 0, 'country': 'cn', 'latitude': '31.6499996185303', 'longitude': '118.525001525879', 'timezone_name': 'Asia/Shanghai', 'timezone_offset': 8}, {'city_id': -3829830, 'name': 'Wangxu', 'nr_hotels': 0, 'country': 'cn', 'latitude': '31.36669921875', 'longitude': '118.449996948242', 'timezone_name': 'Asia/Shanghai', 'timezone_offset': 8}, {'city_id': -3829760, 'name': 'Gangzi', 'nr_hotels': 0, 'country': 'cn', 'latitude': '31.6499996185303', 'longitude': '118.491996765137', 'timezone_name': 'Asia/Shanghai', 'timezone_offset': 8}, {'city_id': -3829737, 'name': 'Fengqiao', 'nr_hotels': 0, 'country': 'cn', 'latitude': '31.6916999816895', 'longitude': '118.532997131348', 'timezone_name': 'Asia/Shanghai', 'timezone_offset': 8}, {'city_id': -3829736, 'name': 'Yushan', 'nr_hotels': 1, 'country': 'cn', 'latitude': '31.6749992370605', 'longitude': '118.483001708984', 'timezone_name': 'Asia/Shanghai', 'timezone_offset': 8}, {'city_id': -3829719, 'name': 'Houhuliu', 'nr_hotels': 0, 'country': 'cn', 'latitude': '31.75', 'longitude': '118.282997131348', 'timezone_name': 'Asia/Shanghai', 'timezone_offset': 8}, {'city_id': -3829714, 'name': 'Jiulian', 'nr_hotels': 2, 'country': 'cn', 'latitude': '31.7250003814697', 'longitude': '118.083000183105', 'timezone_name': 'Asia/Shanghai', 'timezone_offset': 8}, {'city_id': -3829673, 'name': 'Shiyangzhen', 'nr_hotels': 0, 'country': 'cn', 'latitude': '31.94479', 'longitude': '118.28028', 'timezone_name': 'Asia/Shanghai', 'timezone_offset': 8}, {'city_id': -3829594, 'name': 'Qiaowan', 'nr_hotels': 0, 'country': 'cn', 'latitude': '31.5417003631592', 'longitude': '117.766998291016', 'timezone_name': 'Asia/Shanghai', 'timezone_offset': 8}, {'city_id': -3829592, 'name': 'Zhangjiahu', 'nr_hotels': 0, 'country': 'cn', 'latitude': '31.5832996368408', 'longitude': '117.782997131348', 'timezone_name': 'Asia/Shanghai', 'timezone_offset': 8}, {'city_id': -3829574, 'name': 'Pengcun', 'nr_hotels': 0, 'country': 'cn', 'latitude': '31.6749992370605', 'longitude': '117.807998657227', 'timezone_name': 'Asia/Shanghai', 'timezone_offset': 8}, {'city_id': -3829462, 'name': 'Caixiaoying', 'nr_hotels': 0, 'country': 'cn', 'latitude': '31.9666996002197', 'longitude': '117.516998291016', 'timezone_name': 'Asia/Shanghai', 'timezone_offset': 8}, {'city_id': -3828339, 'name': 'Örgl', 'nr_hotels': 0, 'country': 'at', 'latitude': '47.7167015075684', 'longitude': '14.3000001907349', 'timezone_name': 'Europe/Vienna', 'timezone_offset': 1}, {'city_id': -3828272, 'name': 'Walchegg', 'nr_hotels': 0, 'country': 'at', 'latitude': '47.7000007629395', 'longitude': '14.2666997909546', 'timezone_name': 'Europe/Vienna', 'timezone_offset': 1}, {'city_id': -3828252, 'name': 'Farnau', 'nr_hotels': 0, 'country': 'at', 'latitude': '47.7000007629395', 'longitude': '14.1667003631592', 'timezone_name': 'Europe/Vienna', 'timezone_offset': 1}, {'city_id': -3828211, 'name': 'Hinterberg', 'nr_hotels': 1, 'country': 'at', 'latitude': '47.6833000183105', 'longitude': '14.1167001724243', 'timezone_name': 'Europe/Vienna', 'timezone_offset': 1}, {'city_id': -3827944, 'name': 'Auf der Leiten', 'nr_hotels': 0, 'country': 'at', 'latitude': '47.5666999816895', 'longitude': '14.25', 'timezone_name': 'Europe/Vienna', 'timezone_offset': 1}, {'city_id': -3827851, 'name': 'Moos', 'nr_hotels': 0, 'country': 'at', 'latitude': '47.5332984924316', 'longitude': '14.25', 'timezone_name': 'Europe/Vienna', 'timezone_offset': 1}, {'city_id': -3826241, 'name': 'El Habal', 'nr_hotels': 0, 'country': 'mx', 'latitude': '23.2250003814697', 'longitude': '-106.733001708984', 'timezone_name': 'America/Mazatlan', 'timezone_offset': -7}, {'city_id': -3826209, 'name': 'El Guajolote', 'nr_hotels': 0, 'country': 'mx', 'latitude': '23.11669921875', 'longitude': '-106.067001342773', 'timezone_name': 'America/Mazatlan', 'timezone_offset': -7}, {'city_id': -3826204, 'name': 'Isla La Piedra', 'nr_hotels': 0, 'country': 'mx', 'latitude': '23.1833000183105', 'longitude': '-106.400001525879', 'timezone_name': 'America/Mazatlan', 'timezone_offset': -7}, {'city_id': -3826181, 'name': 'El Pichilingue', 'nr_hotels': 0, 'country': 'mx', 'latitude': '23.4666996002197', 'longitude': '-106.217002868652', 'timezone_name': 'America/Mazatlan', 'timezone_offset': -7}, {'city_id': -3826129, 'name': 'Puente El Quelite', 'nr_hotels': 0, 'country': 'mx', 'latitude': '23.5167007446289', 'longitude': '-106.5', 'timezone_name': 'America/Mazatlan', 'timezone_offset': -7}, {'city_id': -3826106, 'name': 'Barra de Piaxtla', 'nr_hotels': 0, 'country': 'mx', 'latitude': '23.6667003631592', 'longitude': '-106.807998657227', 'timezone_name': 'America/Mazatlan', 'timezone_offset': -7}, {'city_id': -3826104, 'name': 'Celestino Gasca', 'nr_hotels': 1, 'country': 'mx', 'latitude': '23.8500003814697', 'longitude': '-106.833000183105', 'timezone_name': 'America/Mazatlan', 'timezone_offset': -7}, {'city_id': -3825956, 'name': 'Arbaco', 'nr_hotels': 0, 'country': 'mx', 'latitude': '24.5666999816895', 'longitude': '-107.400001525879', 'timezone_name': 'America/Mazatlan', 'timezone_offset': -7}, {'city_id': -3825846, 'name': 'El Número Tres', 'nr_hotels': 0, 'country': 'mx', 'latitude': '25.3332996368408', 'longitude': '-107.791999816895', 'timezone_name': 'America/Mazatlan', 'timezone_offset': -7}, {'city_id': -3825634, 'name': 'Las Mañepitas', 'nr_hotels': 0, 'country': 'mx', 'latitude': '25.7166996002197', 'longitude': '-109.032997131348', 'timezone_name': 'America/Mazatlan', 'timezone_offset': -7}, {'city_id': -3825565, 'name': 'Poblado Chico', 'nr_hotels': 0, 'country': 'mx', 'latitude': '26.2166996002197', 'longitude': '-109.067001342773', 'timezone_name': 'America/Mazatlan', 'timezone_offset': -7}, {'city_id': -3824321, 'name': 'Lingnan Linchang', 'nr_hotels': 0, 'country': 'cn', 'latitude': '29.4624996185303', 'longitude': '118.150001525879', 'timezone_name': 'Asia/Shanghai', 'timezone_offset': 8}, {'city_id': -3824289, 'name': 'Xuyuan', 'nr_hotels': 0, 'country': 'cn', 'latitude': '29.5583000183105', 'longitude': '117.887001037598', 'timezone_name': 'Asia/Shanghai', 'timezone_offset': 8}, {'city_id': -3824281, 'name': 'Huaqiao', 'nr_hotels': 0, 'country': 'cn', 'latitude': '29.6457996368408', 'longitude': '117.991996765137', 'timezone_name': 'Asia/Shanghai', 'timezone_offset': 8}, {'city_id': -3824220, 'name': 'Shizhong', 'nr_hotels': 0, 'country': 'cn', 'latitude': '29.6916999816895', 'longitude': '118.271003723145', 'timezone_name': 'Asia/Shanghai', 'timezone_offset': 8}, {'city_id': -3824219, 'name': 'Liyangzhen', 'nr_hotels': 0, 'country': 'cn', 'latitude': '29.7082996368408', 'longitude': '118.282997131348', 'timezone_name': 'Asia/Shanghai', 'timezone_offset': 8}, {'city_id': -3824209, 'name': 'Tunguangzhen', 'nr_hotels': 0, 'country': 'cn', 'latitude': '29.7667007446289', 'longitude': '118.358001708984', 'timezone_name': 'Asia/Shanghai', 'timezone_offset': 8}, {'city_id': -3824206, 'name': 'Xintan', 'nr_hotels': 0, 'country': 'cn', 'latitude': '29.7311000823975', 'longitude': '118.287002563477', 'timezone_name': 'Asia/Shanghai', 'timezone_offset': 8}, {'city_id': -3824187, 'name': 'Shangchanglin', 'nr_hotels': 0, 'country': 'cn', 'latitude': '29.8166999816895', 'longitude': '118.266998291016', 'timezone_name': 'Asia/Shanghai', 'timezone_offset': 8}, {'city_id': -3824177, 'name': 'Tangmo Chachang', 'nr_hotels': 0, 'country': 'cn', 'latitude': '29.875', 'longitude': '118.324996948242', 'timezone_name': 'Asia/Shanghai', 'timezone_offset': 8}, {'city_id': -3824176, 'name': 'Shuyuan', 'nr_hotels': 0, 'country': 'cn', 'latitude': '29.9083003997803', 'longitude': '118.329002380371', 'timezone_name': 'Asia/Shanghai', 'timezone_offset': 8}, {'city_id': -3824175, 'name': 'Chengkan', 'nr_hotels': 0, 'country': 'cn', 'latitude': '29.9235992431641', 'longitude': '118.283996582031', 'timezone_name': 'Asia/Shanghai', 'timezone_offset': 8}, {'city_id': -3824174, 'name': 'Shichuan', 'nr_hotels': 0, 'country': 'cn', 'latitude': '29.8999996185303', 'longitude': '118.25', 'timezone_name': 'Asia/Shanghai', 'timezone_offset': 8}, {'city_id': -3824106, 'name': 'Dongyuan', 'nr_hotels': 0, 'country': 'cn', 'latitude': '29.9069004058838', 'longitude': '117.990997314453', 'timezone_name': 'Asia/Shanghai', 'timezone_offset': 8}, {'city_id': -3824105, 'name': 'Qinglingshan', 'nr_hotels': 0, 'country': 'cn', 'latitude': '29.875', 'longitude': '117.938003540039', 'timezone_name': 'Asia/Shanghai', 'timezone_offset': 8}, {'city_id': -3824092, 'name': 'Pingshan', 'nr_hotels': 0, 'country': 'cn', 'latitude': '29.9416999816895', 'longitude': '117.974998474121', 'timezone_name': 'Asia/Shanghai', 'timezone_offset': 8}, {'city_id': -3824091, 'name': 'Xianchachang', 'nr_hotels': 0, 'country': 'cn', 'latitude': '29.9167003631592', 'longitude': '117.932998657227', 'timezone_name': 'Asia/Shanghai', 'timezone_offset': 8}, {'city_id': -3824090, 'name': 'San-tu', 'nr_hotels': 0, 'country': 'cn', 'latitude': '29.9563999176025', 'longitude': '117.908996582031', 'timezone_name': 'Asia/Shanghai', 'timezone_offset': 8}, {'city_id': -3824089, 'name': 'Dashitai', 'nr_hotels': 0, 'country': 'cn', 'latitude': '29.92919921875', 'longitude': '117.900001525879', 'timezone_name': 'Asia/Shanghai', 'timezone_offset': 8}, {'city_id': -3824059, 'name': 'Xintian', 'nr_hotels': 0, 'country': 'cn', 'latitude': '30.0291996002197', 'longitude': '118.599998474121', 'timezone_name': 'Asia/Shanghai', 'timezone_offset': 8}, {'city_id': -3824055, 'name': 'Dazhang', 'nr_hotels': 0, 'country': 'cn', 'latitude': '30.1082992553711', 'longitude': '118.787002563477', 'timezone_name': 'Asia/Shanghai', 'timezone_offset': 8}, {'city_id': -3824051, 'name': 'Zhongqiaochuan', 'nr_hotels': 0, 'country': 'cn', 'latitude': '30.11669921875', 'longitude': '118.675003051758', 'timezone_name': 'Asia/Shanghai', 'timezone_offset': 8}, {'city_id': -3824041, 'name': 'Xiaoyao', 'nr_hotels': 0, 'country': 'cn', 'latitude': '30.1583003997803', 'longitude': '118.811996459961', 'timezone_name': 'Asia/Shanghai', 'timezone_offset': 8}, {'city_id': -3824007, 'name': 'Huatan', 'nr_hotels': 0, 'country': 'cn', 'latitude': '30.3166999816895', 'longitude': '118.532997131348', 'timezone_name': 'Asia/Shanghai', 'timezone_offset': 8}, {'city_id': -3823996, 'name': 'Fangcun', 'nr_hotels': 0, 'country': 'cn', 'latitude': '30.0417003631592', 'longitude': '118.175003051758', 'timezone_name': 'Asia/Shanghai', 'timezone_offset': 8}, {'city_id': -3823994, 'name': 'Dalingxia', 'nr_hotels': 0, 'country': 'cn', 'latitude': '30.0375003814697', 'longitude': '118.137001037598', 'timezone_name': 'Asia/Shanghai', 'timezone_offset': 8}, {'city_id': -3823985, 'name': 'Kuzhuxi', 'nr_hotels': 0, 'country': 'cn', 'latitude': '30.1000003814697', 'longitude': '118.199996948242', 'timezone_name': 'Asia/Shanghai', 'timezone_offset': 8}, {'city_id': -3823984, 'name': 'Zhaixi', 'nr_hotels': 0, 'country': 'cn', 'latitude': '30.0583000183105', 'longitude': '118.166999816895', 'timezone_name': 'Asia/Shanghai', 'timezone_offset': 8}, {'city_id': -3823973, 'name': 'Sukeng', 'nr_hotels': 0, 'country': 'cn', 'latitude': '30.11669921875', 'longitude': '118.25', 'timezone_name': 'Asia/Shanghai', 'timezone_offset': 8}, {'city_id': -3823972, 'name': 'Beiguanqiao', 'nr_hotels': 0, 'country': 'cn', 'latitude': '30.1417007446289', 'longitude': '118.237998962402', 'timezone_name': 'Asia/Shanghai', 'timezone_offset': 8}, {'city_id': -3823970, 'name': 'Beihaibinguan', 'nr_hotels': 0, 'country': 'cn', 'latitude': '30.1457996368408', 'longitude': '118.166999816895', 'timezone_name': 'Asia/Shanghai', 'timezone_offset': 8}, {'city_id': -3823949, 'name': 'Gengcheng', 'nr_hotels': 0, 'country': 'cn', 'latitude': '30.23041', 'longitude': '118.1602', 'timezone_name': 'Asia/Shanghai', 'timezone_offset': 8}, {'city_id': -3823934, 'name': 'Miaoxia', 'nr_hotels': 0, 'country': 'cn', 'latitude': '30.3292007446289', 'longitude': '118.003997802734', 'timezone_name': 'Asia/Shanghai', 'timezone_offset': 8}, {'city_id': -3823932, 'name': 'Lucun', 'nr_hotels': 0, 'country': 'cn', 'latitude': '30.0167007446289', 'longitude': '117.967002868652', 'timezone_name': 'Asia/Shanghai', 'timezone_offset': 8}, {'city_id': -3823852, 'name': 'Liyucun', 'nr_hotels': 0, 'country': 'cn', 'latitude': '30.3332996368408', 'longitude': '119.150001525879', 'timezone_name': 'Asia/Shanghai', 'timezone_offset': 8}, {'city_id': -3823753, 'name': 'Xikengwu', 'nr_hotels': 0, 'country': 'cn', 'latitude': '30.5832996368408', 'longitude': '118.900001525879', 'timezone_name': 'Asia/Shanghai', 'timezone_offset': 8}, {'city_id': -3823745, 'name': 'Tingxi', 'nr_hotels': 0, 'country': 'cn', 'latitude': '30.6000003814697', 'longitude': '118.612998962402', 'timezone_name': 'Asia/Shanghai', 'timezone_offset': 8}, {'city_id': -3823731, 'name': 'Aimin', 'nr_hotels': 0, 'country': 'cn', 'latitude': '30.6457996368408', 'longitude': '118.608001708984', 'timezone_name': 'Asia/Shanghai', 'timezone_offset': 8}, {'city_id': -3823728, 'name': 'Taipingkeng', 'nr_hotels': 0, 'country': 'cn', 'latitude': '30.6583003997803', 'longitude': '118.567001342773', 'timezone_name': 'Asia/Shanghai', 'timezone_offset': 8}, {'city_id': -3823718, 'name': 'Pinghuzhen', 'nr_hotels': 0, 'country': 'cn', 'latitude': '30.3582992553711', 'longitude': '118.061996459961', 'timezone_name': 'Asia/Shanghai', 'timezone_offset': 8}, {'city_id': -3823692, 'name': 'Shengcun', 'nr_hotels': 0, 'country': 'cn', 'latitude': '30.49169921875', 'longitude': '118.041999816895', 'timezone_name': 'Asia/Shanghai', 'timezone_offset': 8}, {'city_id': -3823680, 'name': 'Zhaji', 'nr_hotels': 0, 'country': 'cn', 'latitude': '30.5167007446289', 'longitude': '118.032997131348', 'timezone_name': 'Asia/Shanghai', 'timezone_offset': 8}, {'city_id': -3823677, 'name': 'Huangjianao', 'nr_hotels': 0, 'country': 'cn', 'latitude': '30.5958003997803', 'longitude': '118.391998291016', 'timezone_name': 'Asia/Shanghai', 'timezone_offset': 8}, {'city_id': -3823643, 'name': 'Shangwenlou', 'nr_hotels': 0, 'country': 'cn', 'latitude': '30.4041996002197', 'longitude': '117.991996765137', 'timezone_name': 'Asia/Shanghai', 'timezone_offset': 8}, {'city_id': -3823625, 'name': 'Dalongshan', 'nr_hotels': 0, 'country': 'cn', 'latitude': '30.4582996368408', 'longitude': '117.532997131348', 'timezone_name': 'Asia/Shanghai', 'timezone_offset': 8}, {'city_id': -3823608, 'name': 'Zhubei', 'nr_hotels': 0, 'country': 'cn', 'latitude': '30.5457992553711', 'longitude': '117.866996765137', 'timezone_name': 'Asia/Shanghai', 'timezone_offset': 8}, {'city_id': -3823607, 'name': 'Jiuhua', 'nr_hotels': 0, 'country': 'cn', 'latitude': '30.5417003631592', 'longitude': '117.791999816895', 'timezone_name': 'Asia/Shanghai', 'timezone_offset': 8}, {'city_id': -3823584, 'name': 'Chengdong', 'nr_hotels': 0, 'country': 'cn', 'latitude': '30.63330078125', 'longitude': '117.866996765137', 'timezone_name': 'Asia/Shanghai', 'timezone_offset': 8}, {'city_id': -3822427, 'name': 'Duzhuang', 'nr_hotels': 1, 'country': 'cn', 'latitude': '33.488899230957', 'longitude': '117.900001525879', 'timezone_name': 'Asia/Shanghai', 'timezone_offset': 8}, {'city_id': -3822145, 'name': 'Zhaolou', 'nr_hotels': 0, 'country': 'cn', 'latitude': '34.0416984558105', 'longitude': '117.092002868652', 'timezone_name': 'Asia/Shanghai', 'timezone_offset': 8}, {'city_id': -3822081, 'name': 'Cihuatlán', 'nr_hotels': 1, 'country': 'mx', 'latitude': '19.25', 'longitude': '-104.567001342773', 'timezone_name': 'America/Mexico_City', 'timezone_offset': -6}, {'city_id': -3822080, 'name': 'Tecuán', 'nr_hotels': 0, 'country': 'mx', 'latitude': '19.3166999816895', 'longitude': '-104.916999816895', 'timezone_name': 'America/Mexico_City', 'timezone_offset': -6}, {'city_id': -3822024, 'name': 'Sonoral', 'nr_hotels': 0, 'country': 'mx', 'latitude': '20.7833003997803', 'longitude': '-105.166999816895', 'timezone_name': 'America/Mazatlan', 'timezone_offset': -7}, {'city_id': -3820328, 'name': 'Tveretskiy', 'nr_hotels': 0, 'country': 'ru', 'latitude': '57.2644004821777', 'longitude': '34.8349990844727', 'timezone_name': 'Europe/Moscow', 'timezone_offset': 3}, {'city_id': -3820147, 'name': 'Kryukovo', 'nr_hotels': 0, 'country': 'ru', 'latitude': '57.1232986450195', 'longitude': '34.9467010498047', 'timezone_name': 'Europe/Moscow', 'timezone_offset': 3}, {'city_id': -3820061, 'name': 'Dityatkino', 'nr_hotels': 0, 'country': 'ru', 'latitude': '57.1688995361328', 'longitude': '34.8513984680176', 'timezone_name': 'Europe/Moscow', 'timezone_offset': 3}, {'city_id': -3819802, 'name': 'Jiangta', 'nr_hotels': 0, 'country': 'cn', 'latitude': '30.1056003570557', 'longitude': '116.713996887207', 'timezone_name': 'Asia/Shanghai', 'timezone_offset': 8}, {'city_id': -3819712, 'name': 'Renyuexing', 'nr_hotels': 0, 'country': 'cn', 'latitude': '30.5305995941162', 'longitude': '117.106002807617', 'timezone_name': 'Asia/Shanghai', 'timezone_offset': 8}, {'city_id': -3819702, 'name': 'Xiaokeng', 'nr_hotels': 0, 'country': 'cn', 'latitude': '30.5417003631592', 'longitude': '117.041999816895', 'timezone_name': 'Asia/Shanghai', 'timezone_offset': 8}, {'city_id': -3819695, 'name': 'Shaqiao', 'nr_hotels': 0, 'country': 'cn', 'latitude': '30.5694007873535', 'longitude': '117.053001403809', 'timezone_name': 'Asia/Shanghai', 'timezone_offset': 8}, {'city_id': -3819694, 'name': 'Dalongshanzhen', 'nr_hotels': 0, 'country': 'cn', 'latitude': '30.5916996002197', 'longitude': '117.005996704102', 'timezone_name': 'Asia/Shanghai', 'timezone_offset': 8}, {'city_id': -3819595, 'name': 'Gaoji', 'nr_hotels': 0, 'country': 'cn', 'latitude': '30.625', 'longitude': '116.541999816895', 'timezone_name': 'Asia/Shanghai', 'timezone_offset': 8}, {'city_id': -3819588, 'name': 'Pengling', 'nr_hotels': 0, 'country': 'cn', 'latitude': '30.6639003753662', 'longitude': '116.571998596191', 'timezone_name': 'Asia/Shanghai', 'timezone_offset': 8}, {'city_id': -3819491, 'name': 'Wangjialaowu', 'nr_hotels': 0, 'country': 'cn', 'latitude': '30.6693992614746', 'longitude': '116.502998352051', 'timezone_name': 'Asia/Shanghai', 'timezone_offset': 8}, {'city_id': -3819359, 'name': 'Chenguang', 'nr_hotels': 0, 'country': 'cn', 'latitude': '31.24169921875', 'longitude': '117.305999755859', 'timezone_name': 'Asia/Shanghai', 'timezone_offset': 8}, {'city_id': -3819330, 'name': 'Wangguolu', 'nr_hotels': 1, 'country': 'cn', 'latitude': '31.0527992248535', 'longitude': '116.967002868652', 'timezone_name': 'Asia/Shanghai', 'timezone_offset': 8}, {'city_id': -3819271, 'name': 'Xiaziwan', 'nr_hotels': 0, 'country': 'cn', 'latitude': '31.3027992248535', 'longitude': '116.766998291016', 'timezone_name': 'Asia/Shanghai', 'timezone_offset': 8}, {'city_id': -3819217, 'name': 'Weijiachong', 'nr_hotels': 0, 'country': 'cn', 'latitude': '31.5972003936768', 'longitude': '117.491996765137', 'timezone_name': 'Asia/Shanghai', 'timezone_offset': 8}, {'city_id': -3819119, 'name': 'Luxijing', 'nr_hotels': 0, 'country': 'cn', 'latitude': '31.6944007873535', 'longitude': '117.067001342773', 'timezone_name': 'Asia/Shanghai', 'timezone_offset': 8}, {'city_id': -3819110, 'name': 'Xianshiliaochang', 'nr_hotels': 0, 'country': 'cn', 'latitude': '31.7138996124268', 'longitude': '117.011001586914', 'timezone_name': 'Asia/Shanghai', 'timezone_offset': 8}, {'city_id': -3819107, 'name': 'Wangdaying', 'nr_hotels': 4, 'country': 'cn', 'latitude': '31.74169921875', 'longitude': '117.266998291016', 'timezone_name': 'Asia/Shanghai', 'timezone_offset': 8}, {'city_id': -3819106, 'name': 'Wanglinying', 'nr_hotels': 0, 'country': 'cn', 'latitude': '31.761100769043', 'longitude': '117.217002868652', 'timezone_name': 'Asia/Shanghai', 'timezone_offset': 8}, {'city_id': -3819104, 'name': 'Sanshigang', 'nr_hotels': 2, 'country': 'cn', 'latitude': '31.738899230957', 'longitude': '117.178001403809', 'timezone_name': 'Asia/Shanghai', 'timezone_offset': 8}, {'city_id': -3819095, 'name': 'Luogang', 'nr_hotels': 2, 'country': 'cn', 'latitude': '31.7667007446289', 'longitude': '117.317001342773', 'timezone_name': 'Asia/Shanghai', 'timezone_offset': 8}, {'city_id': -3819092, 'name': 'Shibagang', 'nr_hotels': 1, 'country': 'cn', 'latitude': '31.7861003875732', 'longitude': '117.224998474121', 'timezone_name': 'Asia/Shanghai', 'timezone_offset': 8}, {'city_id': -3819091, 'name': 'Lianlianba', 'nr_hotels': 0, 'country': 'cn', 'latitude': '31.7693996429443', 'longitude': '117.161003112793', 'timezone_name': 'Asia/Shanghai', 'timezone_offset': 8}, {'city_id': -3819090, 'name': "Chang'an", 'nr_hotels': 0, 'country': 'cn', 'latitude': '31.7943992614746', 'longitude': '117.138999938965', 'timezone_name': 'Asia/Shanghai', 'timezone_offset': 8}, {'city_id': -3819086, 'name': 'Nanqi', 'nr_hotels': 2, 'country': 'cn', 'latitude': '31.8222007751465', 'longitude': '117.261001586914', 'timezone_name': 'Asia/Shanghai', 'timezone_offset': 8}, {'city_id': -3819084, 'name': 'Dayinggang', 'nr_hotels': 1, 'country': 'cn', 'latitude': '31.8278007507324', 'longitude': '117.150001525879', 'timezone_name': 'Asia/Shanghai', 'timezone_offset': 8}, {'city_id': -3819080, 'name': 'Longtang', 'nr_hotels': 1, 'country': 'cn', 'latitude': '31.8332996368408', 'longitude': '117.40299987793', 'timezone_name': 'Asia/Shanghai', 'timezone_offset': 8}, {'city_id': -3819074, 'name': 'Qilitangzhen', 'nr_hotels': 1, 'country': 'cn', 'latitude': '31.8917007446289', 'longitude': '117.303001403809', 'timezone_name': 'Asia/Shanghai', 'timezone_offset': 8}, {'city_id': -3819063, 'name': 'Xinghuacunzhen', 'nr_hotels': 0, 'country': 'cn', 'latitude': '31.9027996063232', 'longitude': '117.266998291016', 'timezone_name': 'Asia/Shanghai', 'timezone_offset': 8}, {'city_id': -3819059, 'name': 'Jinwanzi', 'nr_hotels': 0, 'country': 'cn', 'latitude': '31.9221992492676', 'longitude': '117.081001281738', 'timezone_name': 'Asia/Shanghai', 'timezone_offset': 8}, {'city_id': -3819054, 'name': 'Shibagang', 'nr_hotels': 0, 'country': 'cn', 'latitude': '31.9528007507324', 'longitude': '117.263999938965', 'timezone_name': 'Asia/Shanghai', 'timezone_offset': 8}, {'city_id': -3819048, 'name': 'Zhengxiaohe', 'nr_hotels': 0, 'country': 'cn', 'latitude': '31.9944000244141', 'longitude': '117.442001342773', 'timezone_name': 'Asia/Shanghai', 'timezone_offset': 8}, {'city_id': -3819035, 'name': 'Ershilidun', 'nr_hotels': 0, 'country': 'cn', 'latitude': '31.6667003631592', 'longitude': '116.553001403809', 'timezone_name': 'Asia/Shanghai', 'timezone_offset': 8}, {'city_id': -3819024, 'name': 'Jindazhuang', 'nr_hotels': 0, 'country': 'cn', 'latitude': '31.7028007507324', 'longitude': '116.52799987793', 'timezone_name': 'Asia/Shanghai', 'timezone_offset': 8}, {'city_id': -3819016, 'name': 'Chengdong', 'nr_hotels': 0, 'country': 'cn', 'latitude': '31.75830078125', 'longitude': '116.557998657227', 'timezone_name': 'Asia/Shanghai', 'timezone_offset': 8}, {'city_id': -3819014, 'name': 'Wangchenggang', 'nr_hotels': 0, 'country': 'cn', 'latitude': '31.747200012207', 'longitude': '116.513999938965', 'timezone_name': 'Asia/Shanghai', 'timezone_offset': 8}, {'city_id': -3818967, 'name': 'Tangfangying', 'nr_hotels': 0, 'country': 'cn', 'latitude': '31.9528007507324', 'longitude': '116.974998474121', 'timezone_name': 'Asia/Shanghai', 'timezone_offset': 8}, {'city_id': -3818936, 'name': 'Shaogang', 'nr_hotels': 0, 'country': 'cn', 'latitude': '32.0416984558105', 'longitude': '117.233001708984', 'timezone_name': 'Asia/Shanghai', 'timezone_offset': 8}, {'city_id': -3818240, 'name': 'Yedidalga', 'nr_hotels': 0, 'country': 'cy', 'latitude': '35.144401550293', 'longitude': '32.8039016723633', 'timezone_name': 'Asia/Nicosia', 'timezone_offset': 2}, {'city_id': -3816110, 'name': 'Hinterposern', 'nr_hotels': 0, 'country': 'at', 'latitude': '47.6500015258789', 'longitude': '13.7666997909546', 'timezone_name': 'Europe/Vienna', 'timezone_offset': 1}, {'city_id': -3816094, 'name': 'Pichlern', 'nr_hotels': 0, 'country': 'at', 'latitude': '47.6419', 'longitude': '13.66575', 'timezone_name': 'Europe/Vienna', 'timezone_offset': 1}, {'city_id': -3816074, 'name': 'Kröß', 'nr_hotels': 0, 'country': 'at', 'latitude': '47.6500015258789', 'longitude': '13.6167001724243', 'timezone_name': 'Europe/Vienna', 'timezone_offset': 1}, {'city_id': -3816027, 'name': 'Edt', 'nr_hotels': 0, 'country': 'at', 'latitude': '47.63330078125', 'longitude': '13.6332998275757', 'timezone_name': 'Europe/Vienna', 'timezone_offset': 1}, {'city_id': -3816024, 'name': 'Gschwandt', 'nr_hotels': 0, 'country': 'at', 'latitude': '47.63330078125', 'longitude': '13.6167001724243', 'timezone_name': 'Europe/Vienna', 'timezone_offset': 1}, {'city_id': -3816022, 'name': 'Steinach', 'nr_hotels': 0, 'country': 'at', 'latitude': '47.63330078125', 'longitude': '13.6000003814697', 'timezone_name': 'Europe/Vienna', 'timezone_offset': 1}, {'city_id': -3816015, 'name': 'Archkogel', 'nr_hotels': 1, 'country': 'at', 'latitude': '47.61669921875', 'longitude': '13.8332996368408', 'timezone_name': 'Europe/Vienna', 'timezone_offset': 1}, {'city_id': -3816006, 'name': 'Reith', 'nr_hotels': 0, 'country': 'at', 'latitude': '47.61669921875', 'longitude': '13.8000001907349', 'timezone_name': 'Europe/Vienna', 'timezone_offset': 1}, {'city_id': -3816001, 'name': 'Praunfalk', 'nr_hotels': 0, 'country': 'at', 'latitude': '47.61669921875', 'longitude': '13.7833003997803', 'timezone_name': 'Europe/Vienna', 'timezone_offset': 1}, {'city_id': -3815993, 'name': 'Helmbichl', 'nr_hotels': 1, 'country': 'at', 'latitude': '47.61669921875', 'longitude': '13.75', 'timezone_name': 'Europe/Vienna', 'timezone_offset': 1}, {'city_id': -3815970, 'name': 'Mühlau', 'nr_hotels': 0, 'country': 'at', 'latitude': '47.61669921875', 'longitude': '13.6332998275757', 'timezone_name': 'Europe/Vienna', 'timezone_offset': 1}, {'city_id': -3815956, 'name': 'Anger', 'nr_hotels': 1, 'country': 'at', 'latitude': '47.5999984741211', 'longitude': '13.8166999816895', 'timezone_name': 'Europe/Vienna', 'timezone_offset': 1}, {'city_id': -3815922, 'name': 'Radling', 'nr_hotels': 0, 'country': 'at', 'latitude': '47.5833015441895', 'longitude': '13.8332996368408', 'timezone_name': 'Europe/Vienna', 'timezone_offset': 1}, {'city_id': -3813082, 'name': 'Bāvīl-e ‘Olyā', 'nr_hotels': 0, 'country': 'ir', 'latitude': '37.9333000183105', 'longitude': '46.0999984741211', 'timezone_name': 'Asia/Tehran', 'timezone_offset': 4}, {'city_id': -3812850, 'name': 'Palyambela', 'nr_hotels': 0, 'country': 'cy', 'latitude': '35.1542015075684', 'longitude': '32.57080078125', 'timezone_name': 'Asia/Nicosia', 'timezone_offset': 2}, {'city_id': -3812743, 'name': 'Nea Dimmata', 'nr_hotels': 0, 'country': 'cy', 'latitude': '35.1330986022949', 'longitude': '32.5231018066406', 'timezone_name': 'Asia/Nicosia', 'timezone_offset': 2}, {'city_id': -3811696, 'name': 'Maa', 'nr_hotels': 4, 'country': 'cy', 'latitude': '34.8541984558105', 'longitude': '32.3708000183105', 'timezone_name': 'Asia/Nicosia', 'timezone_offset': 2}, {'city_id': -3811461, 'name': 'Ayia Trias', 'nr_hotels': 0, 'country': 'xy', 'latitude': '35.1208000183105', 'longitude': '33.9583015441895', 'timezone_name': 'Asia/Nicosia', 'timezone_offset': 2}, {'city_id': -3811443, 'name': 'Zeybekköy', 'nr_hotels': 0, 'country': 'cy', 'latitude': '34.9791984558105', 'longitude': '33.9124984741211', 'timezone_name': 'Asia/Nicosia', 'timezone_offset': 2}, {'city_id': -3811048, 'name': 'Panayia Apakou', 'nr_hotels': 0, 'country': 'xy', 'latitude': '35.5833015441895', 'longitude': '34.4166984558105', 'timezone_name': 'Asia/Nicosia', 'timezone_offset': 2}, {'city_id': -3811032, 'name': 'Ayia Trias', 'nr_hotels': 2, 'country': 'xy', 'latitude': '35.6082992553711', 'longitude': '34.375', 'timezone_name': 'Asia/Nicosia', 'timezone_offset': 2}, {'city_id': -3810996, 'name': 'Selenias', 'nr_hotels': 1, 'country': 'xy', 'latitude': '35.5833015441895', 'longitude': '34.3125', 'timezone_name': 'Asia/Nicosia', 'timezone_offset': 2}, {'city_id': -3810935, 'name': 'Dolinovka', 'nr_hotels': 0, 'country': 'ru', 'latitude': '52.9944000244141', 'longitude': '158.764007568359', 'timezone_name': 'Asia/Kamchatka', 'timezone_offset': 12}, {'city_id': -3810911, 'name': 'Zavoyko', 'nr_hotels': 0, 'country': 'ru', 'latitude': '52.9500007629395', 'longitude': '158.667007446289', 'timezone_name': 'Asia/Kamchatka', 'timezone_offset': 12}, {'city_id': -3810873, 'name': 'Vilyuchinsk', 'nr_hotels': 0, 'country': 'ru', 'latitude': '52.9305992126465', 'longitude': '158.40299987793', 'timezone_name': 'Asia/Kamchatka', 'timezone_offset': 12}, {'city_id': -3810858, 'name': "Termal'nyy", 'nr_hotels': 0, 'country': 'ru', 'latitude': '52.9388999938965', 'longitude': '158.231002807617', 'timezone_name': 'Asia/Kamchatka', 'timezone_offset': 12}, {'city_id': -3810533, 'name': 'Ejido Parras', 'nr_hotels': 0, 'country': 'mx', 'latitude': '25.4500007629395', 'longitude': '-102.150001525879', 'timezone_name': 'America/Monterrey', 'timezone_offset': -6}, {'city_id': -3809527, 'name': 'Ayios Nikolaos', 'nr_hotels': 0, 'country': 'xy', 'latitude': '35.375', 'longitude': '33.7042007446289', 'timezone_name': 'Asia/Nicosia', 'timezone_offset': 2}, {'city_id': -3809395, 'name': 'Ayios Yeoryios', 'nr_hotels': 1, 'country': 'xy', 'latitude': '35.3250007629395', 'longitude': '33.50830078125', 'timezone_name': 'Asia/Nicosia', 'timezone_offset': 2}, {'city_id': -3809393, 'name': 'Alakati', 'nr_hotels': 0, 'country': 'xy', 'latitude': '35.3333015441895', 'longitude': '33.5', 'timezone_name': 'Asia/Nicosia', 'timezone_offset': 2}, {'city_id': -3809238, 'name': 'Ayia Varvara', 'nr_hotels': 1, 'country': 'xy', 'latitude': '35.3417015075684', 'longitude': '33.30419921875', 'timezone_name': 'Asia/Nicosia', 'timezone_offset': 2}, {'city_id': -3809209, 'name': 'Ayios Yeoryios', 'nr_hotels': 1, 'country': 'xy', 'latitude': '35.3457984924316', 'longitude': '33.2792015075684', 'timezone_name': 'Asia/Nicosia', 'timezone_offset': 2}, {'city_id': -3809179, 'name': 'Zheleznodorozhnyy', 'nr_hotels': 0, 'country': 'kz', 'latitude': '50.4249992370605', 'longitude': '80.2917022705078', 'timezone_name': 'Asia/Almaty', 'timezone_offset': 6}, {'city_id': -3809170, 'name': 'Komsomolʼskiy', 'nr_hotels': 0, 'country': 'kz', 'latitude': '50.38330078125', 'longitude': '80.2332992553711', 'timezone_name': 'Asia/Almaty', 'timezone_offset': 6}, {'city_id': -3809082, 'name': 'Ayia Varvara', 'nr_hotels': 0, 'country': 'xy', 'latitude': '35.3541984558105', 'longitude': '33.1833000183105', 'timezone_name': 'Asia/Nicosia', 'timezone_offset': 2}, {'city_id': -3808638, 'name': 'Tomsenatī', 'nr_hotels': 0, 'country': 'ir', 'latitude': '26.8743991851807', 'longitude': '56.0041999816895', 'timezone_name': 'Asia/Tehran', 'timezone_offset': 4}, {'city_id': -3806688, 'name': 'Yinwan', 'nr_hotels': 0, 'country': 'cn', 'latitude': '30.1833000183105', 'longitude': '116.133003234863', 'timezone_name': 'Asia/Shanghai', 'timezone_offset': 8}, {'city_id': -3806615, 'name': 'Chituling', 'nr_hotels': 1, 'country': 'cn', 'latitude': '30.4666996002197', 'longitude': '116.317001342773', 'timezone_name': 'Asia/Shanghai', 'timezone_offset': 8}, {'city_id': -3806614, 'name': 'Chalu', 'nr_hotels': 0, 'country': 'cn', 'latitude': '30.4582996368408', 'longitude': '116.300003051758', 'timezone_name': 'Asia/Shanghai', 'timezone_offset': 8}, {'city_id': -3806593, 'name': 'Jinzhong', 'nr_hotels': 10, 'country': 'cn', 'latitude': '37.6899404037059', 'longitude': '112.749618530273', 'timezone_name': 'Asia/Shanghai', 'timezone_offset': 8}, {'city_id': -3806520, 'name': 'Tianzhushanzhen', 'nr_hotels': 0, 'country': 'cn', 'latitude': '30.7332992553711', 'longitude': '116.458000183105', 'timezone_name': 'Asia/Shanghai', 'timezone_offset': 8}, {'city_id': -3806517, 'name': 'Miaowan', 'nr_hotels': 0, 'country': 'cn', 'latitude': '30.75830078125', 'longitude': '116.407997131348', 'timezone_name': 'Asia/Shanghai', 'timezone_offset': 8}, {'city_id': -3806485, 'name': 'Changwu', 'nr_hotels': 0, 'country': 'cn', 'latitude': '30.88330078125', 'longitude': '116.116996765137', 'timezone_name': 'Asia/Shanghai', 'timezone_offset': 8}, {'city_id': -3806476, 'name': 'Gelaowu', 'nr_hotels': 0, 'country': 'cn', 'latitude': '30.9416999816895', 'longitude': '116.416999816895', 'timezone_name': 'Asia/Shanghai', 'timezone_offset': 8}, {'city_id': -3806451, 'name': 'Jiangjiadun', 'nr_hotels': 0, 'country': 'cn', 'latitude': '30.8250007629395', 'longitude': '115.900001525879', 'timezone_name': 'Asia/Shanghai', 'timezone_offset': 8}, {'city_id': -3806417, 'name': 'Hongjiafan', 'nr_hotels': 0, 'country': 'cn', 'latitude': '31.13330078125', 'longitude': '116.150001525879', 'timezone_name': 'Asia/Shanghai', 'timezone_offset': 8}, {'city_id': -3806381, 'name': 'Baimazhailinchang', 'nr_hotels': 0, 'country': 'cn', 'latitude': '31.13330078125', 'longitude': '115.766998291016', 'timezone_name': 'Asia/Shanghai', 'timezone_offset': 8}, {'city_id': -3806376, 'name': 'Xiaohekan', 'nr_hotels': 0, 'country': 'cn', 'latitude': '31.2082996368408', 'longitude': '115.817001342773', 'timezone_name': 'Asia/Shanghai', 'timezone_offset': 8}, {'city_id': -3806375, 'name': "Nanhe'ao", 'nr_hotels': 0, 'country': 'cn', 'latitude': '31.1749992370605', 'longitude': '115.766998291016', 'timezone_name': 'Asia/Shanghai', 'timezone_offset': 8}, {'city_id': -3806373, 'name': 'Meihe', 'nr_hotels': 0, 'country': 'cn', 'latitude': '31.25', 'longitude': '115.932998657227', 'timezone_name': 'Asia/Shanghai', 'timezone_offset': 8}, {'city_id': -3806371, 'name': 'Liushici', 'nr_hotels': 0, 'country': 'cn', 'latitude': '31.2332992553711', 'longitude': '115.75', 'timezone_name': 'Asia/Shanghai', 'timezone_offset': 8}, {'city_id': -3806364, 'name': 'Xizhuang', 'nr_hotels': 0, 'country': 'cn', 'latitude': '31.2332992553711', 'longitude': '115.567001342773', 'timezone_name': 'Asia/Shanghai', 'timezone_offset': 8}, {'city_id': -3806197, 'name': 'Shangdian', 'nr_hotels': 0, 'country': 'cn', 'latitude': '31.5832996368408', 'longitude': '115.467002868652', 'timezone_name': 'Asia/Shanghai', 'timezone_offset': 8}, {'city_id': -3806184, 'name': 'Shiliqiao', 'nr_hotels': 0, 'country': 'cn', 'latitude': '31.75', 'longitude': '116.432998657227', 'timezone_name': 'Asia/Shanghai', 'timezone_offset': 8}, {'city_id': -3806112, 'name': 'Qupu', 'nr_hotels': 1, 'country': 'cn', 'latitude': '31.7000007629395', 'longitude': '115.983001708984', 'timezone_name': 'Asia/Shanghai', 'timezone_offset': 8}, {'city_id': -3806098, 'name': 'Sundazhuang', 'nr_hotels': 0, 'country': 'cn', 'latitude': '31.7667007446289', 'longitude': '115.900001525879', 'timezone_name': 'Asia/Shanghai', 'timezone_offset': 8}, {'city_id': -3806096, 'name': 'Yangguanchong', 'nr_hotels': 0, 'country': 'cn', 'latitude': '31.7749996185303', 'longitude': '115.833000183105', 'timezone_name': 'Asia/Shanghai', 'timezone_offset': 8}, {'city_id': -3806089, 'name': 'Sifangtang', 'nr_hotels': 1, 'country': 'cn', 'latitude': '31.8416996002197', 'longitude': '115.916999816895', 'timezone_name': 'Asia/Shanghai', 'timezone_offset': 8}, {'city_id': -3806087, 'name': 'Sungang', 'nr_hotels': 0, 'country': 'cn', 'latitude': '31.88330078125', 'longitude': '115.949996948242', 'timezone_name': 'Asia/Shanghai', 'timezone_offset': 8}, {'city_id': -3805273, 'name': 'Kangarān', 'nr_hotels': 0, 'country': 'ir', 'latitude': '34.61669921875', 'longitude': '49.86669921875', 'timezone_name': 'Asia/Tehran', 'timezone_offset': 4}, {'city_id': -3805082, 'name': 'Chenzhuang', 'nr_hotels': 0, 'country': 'cn', 'latitude': '32.6571998596191', 'longitude': '119.012001037598', 'timezone_name': 'Asia/Shanghai', 'timezone_offset': 8}, {'city_id': -3805047, 'name': 'Xinhe', 'nr_hotels': 1, 'country': 'cn', 'latitude': '32.4388999938965', 'longitude': '118.428001403809', 'timezone_name': 'Asia/Shanghai', 'timezone_offset': 8}, {'city_id': -3805024, 'name': 'Xitao', 'nr_hotels': 0, 'country': 'cn', 'latitude': '32.5360984802246', 'longitude': '118.113998413086', 'timezone_name': 'Asia/Shanghai', 'timezone_offset': 8}, {'city_id': -3804945, 'name': 'Dingdong', 'nr_hotels': 0, 'country': 'cn', 'latitude': '32.5222015380859', 'longitude': '117.72200012207', 'timezone_name': 'Asia/Shanghai', 'timezone_offset': 8}, {'city_id': -3804936, 'name': 'Shilipu', 'nr_hotels': 1, 'country': 'cn', 'latitude': '32.5611000061035', 'longitude': '117.699996948242', 'timezone_name': 'Asia/Shanghai', 'timezone_offset': 8}, {'city_id': -3804874, 'name': 'Weihu', 'nr_hotels': 0, 'country': 'cn', 'latitude': '32.4416999816895', 'longitude': '117.192001342773', 'timezone_name': 'Asia/Shanghai', 'timezone_offset': 8}, {'city_id': -3804828, 'name': 'Qiujiawan', 'nr_hotels': 1, 'country': 'cn', 'latitude': '32.6817016601562', 'longitude': '119.037002563477', 'timezone_name': 'Asia/Shanghai', 'timezone_offset': 8}, {'city_id': -3804807, 'name': 'Huchengqiao', 'nr_hotels': 1, 'country': 'cn', 'latitude': '32.7308006286621', 'longitude': '118.995002746582', 'timezone_name': 'Asia/Shanghai', 'timezone_offset': 8}, {'city_id': -3804744, 'name': "Kao-t'ang-tzu", 'nr_hotels': 0, 'country': 'cn', 'latitude': '32.739200592041', 'longitude': '118.435997009277', 'timezone_name': 'Asia/Shanghai', 'timezone_offset': 8}, {'city_id': -3804726, 'name': 'Xiaoxugang', 'nr_hotels': 0, 'country': 'cn', 'latitude': '32.8027992248535', 'longitude': '118.022003173828', 'timezone_name': 'Asia/Shanghai', 'timezone_offset': 8}, {'city_id': -3804664, 'name': 'Wulimiao', 'nr_hotels': 0, 'country': 'cn', 'latitude': '32.855598449707', 'longitude': '117.585998535156', 'timezone_name': 'Asia/Shanghai', 'timezone_offset': 8}, {'city_id': -3804658, 'name': 'Shanhoujie', 'nr_hotels': 0, 'country': 'cn', 'latitude': '32.8917007446289', 'longitude': '117.567001342773', 'timezone_name': 'Asia/Shanghai', 'timezone_offset': 8}, {'city_id': -3804592, 'name': 'Lilou', 'nr_hotels': 0, 'country': 'cn', 'latitude': '32.88330078125', 'longitude': '117.456001281738', 'timezone_name': 'Asia/Shanghai', 'timezone_offset': 8}, {'city_id': -3804568, 'name': 'Wuchazhen', 'nr_hotels': 2, 'country': 'cn', 'latitude': '32.9693984985352', 'longitude': '117.189002990723', 'timezone_name': 'Asia/Shanghai', 'timezone_offset': 8},